SALE TYPE,SOLD DATE,PROPERTY TYPE,ADDRESS,CITY,STATE OR PROVINCE,ZIP OR POSTAL CODE,PRICE,BEDS,BATHS,LOCATION,SQUARE FEET,LOT SIZE,YEAR BUILT,DAYS ON MARKET,$/SQUARE FEET,HOA/MONTH,STATUS,NEXT OPEN HOUSE START TIME,NEXT OPEN HOUSE END TIME,URL (SEE https://www.redfin.com/buy-a-home/comparative-market-analysis FOR INFO ON PRICING),SOURCE,MLS#,FAVORITE,INTERESTED,LATITUDE,LONGITUDE,PARK_DIST,HOSPITAL_D,RAIL_DIST,ESCHOOL,HSCHOOL,BUS_COUNTS,FnB_COUNTS
MLS Listing,,Multi-Family (2-4 Unit),12251 S Lowe Ave,Chicago,IL,60628,150000,4.0,2.0,CHI - West Pullman,,3075,1890,4,,0.00,Active,,,https://www.redfin.com/IL/Chicago/12251-S-Lowe-Ave-60628/home/13056684,MRED as Distributed by MLS Grid,11971272,N,Y,41.670989500000000,-87.637761800000000,26,3468,7804,METCALFE,FENGER HS,14,1
MLS Listing,,Single Family Residential,12247 S Wallace St,Chicago,IL,60628,47000,4.0,2.0,CHI - West Pullman,1100.0,3075,1903,117,43.0,0.00,Active,,,https://www.redfin.com/IL/Chicago/12247-S-Wallace-St-60628/home/13057002,MRED as Distributed by MLS Grid,11889116,N,Y,41.670991700000000,-87.636608600000000,146,3417,7780,METCALFE,FENGER HS,12,1
MLS Listing,,Single Family Residential,12130 S Lowe Ave,Chicago,IL,60628,69999,4.0,2.0,CHI - West Pullman,2250.0,0,1900,68,31.0,0.00,Active,,,https://www.redfin.com/IL/Chicago/12130-S-Lowe-Ave-60628/home/188744297,MRED as Distributed by MLS Grid,11938140.0,N,Y,41.673239700000000,-87.638399000000000,66,3197,7489,METCALFE,FENGER HS,24,1
MLS Listing,,Single Family Residential,503 W 125th St,Chicago,IL,60628,185000,4.0,2.0,CHI - West Pullman,1120.0,4613,1951,99,165.0,0.00,Active,,,https://www.redfin.com/IL/Chicago/503-W-125th-St-60628/home/13055708,MRED as Distributed by MLS Grid,11919204,N,Y,41.666739000000000,-87.634543900000000,137,3944,8371,METCALFE,FENGER HS,13,0
MLS Listing,,Single Family Residential,12022 S Wentworth Ave,Chicago,IL,60628,189900,5.0,2.0,CHI - West Pullman,,3689,0,99,,0.00,Active,,,https://www.redfin.com/IL/Chicago/12022-S-Wentworth-Ave-60628/home/13056634,MRED as Distributed by MLS Grid,11919207,N,Y,41.675471300000000,-87.627680900000000,397,2515,7002,METCALFE,FENGER HS,20,0
MLS Listing,,Single Family Residential,12423 S Normal Ave,Chicago,IL,60628,170000,4.0,2.0,CHI - West Pullman,1077.0,3125,1963,111,158.0,0.00,Active,,,https://www.redfin.com/IL/Chicago/12423-S-Normal-Ave-60628/home/12710693,MRED as Distributed by MLS Grid,11910192,N,Y,41.668073300000000,-87.634107900000000,122,3739,8167,METCALFE,FENGER HS,10,1
MLS Listing,,Single Family Residential,12229 S Harvard Ave,Chicago,IL,60628,135000,4.0,2.0,CHI - West Pullman,2072.0,3125,1913,61,65.0,0.00,Active,,,https://www.redfin.com/IL/Chicago/12229-S-Harvard-Ave-60628/home/185258129,MRED as Distributed by MLS Grid,11942427,N,Y,41.671601100000000,-87.630611300000000,147,3137,7601,METCALFE,FENGER HS,4,0
MLS Listing,,Single Family Residential,12049 S Normal Ave,Chicago,IL,60628,179000,5.0,2.0,CHI - West Pullman,1522.0,3998,1890,30,118.0,0.00,Active,,,https://www.redfin.com/IL/Chicago/12049-S-Normal-Ave-60628/home/13058879,MRED as Distributed by MLS Grid,11926791,N,Y,41.674664900000000,-87.634360700000000,561,2816,7199,METCALFE,FENGER HS,22,1
MLS Listing,,Single Family Residential,12338 S Emerald Ave,Chicago,IL,60628,110000,3.0,1.0,CHI - West Pullman,972.0,25000,1928,158,113.0,0.00,Active,,,https://www.redfin.com/IL/Chicago/12338-S-Emerald-Ave-60628/home/13057619,MRED as Distributed by MLS Grid,11872484,N,Y,41.669356300000000,-87.640711900000000,320,3829,8110,METCALFE,FENGER HS,17,1
MLS Listing,,Single Family Residential,12446 S Eggleston Ave,Chicago,IL,60628,160000,3.0,1.5,CHI - West Pullman,1167.0,3075,1953,37,137.0,0.00,Active,,,https://www.redfin.com/IL/Chicago/12446-S-Eggleston-Ave-60628/home/13055737,MRED as Distributed by MLS Grid,11952683,N,Y,41.667377800000000,-87.633425800000000,220,3820,8260,METCALFE,FENGER HS,9,0
MLS Listing,,Single Family Residential,12017 S Union Ave,Chicago,IL,60628,165000,3.0,1.0,CHI - West Pullman,1100.0,10890,1896,505,150.0,0.00,Active,,,https://www.redfin.com/IL/Chicago/12017-S-Union-Ave-60628/home/13058784,MRED as Distributed by MLS Grid,11631415,N,Y,41.675475200000000,-87.639247100000000,108,2955,7185,METCALFE,FENGER HS,28,1
MLS Listing,,Single Family Residential,12215 S Eggleston Ave,Chicago,IL,60628,148999,5.0,2.0,CHI - West Pullman,998.0,3034,1926,190,149.0,0.00,Active,,,https://www.redfin.com/IL/Chicago/12215-S-Eggleston-Ave-60628/home/13057451,MRED as Distributed by MLS Grid,11831716,N,Y,41.671922600000000,-87.633001700000000,198,3154,7582,METCALFE,FENGER HS,11,1
MLS Listing,,Single Family Residential,11926 S Princeton Ave,Chicago,IL,60628,140000,3.0,1.0,CHI - West Pullman,960.0,0,1923,273,146.0,0.00,Active,,,https://www.redfin.com/IL/Chicago/11926-S-Princeton-Ave-60628/home/13057353,MRED as Distributed by MLS Grid,11767241,N,Y,41.677117600000000,-87.630148600000000,390,2323,6778,METCALFE,FENGER HS,14,0
MLS Listing,,Single Family Residential,440 W 127th St,Chicago,IL,60628,239995,4.0,2.0,CHI - West Pullman,2400.0,4512,1959,31,100.0,0.00,Active,,,https://www.redfin.com/IL/Chicago/440-W-127th-St-60628/home/13055832,MRED as Distributed by MLS Grid,11955660,N,Y,41.663563400000000,-87.633425800000000,86,4373,8825,METCALFE,FENGER HS,8,0
MLS Listing,,Single Family Residential,11916 S Lowe Ave,Chicago,IL,60628,264000,4.0,3.0,CHI - West Pullman,2000.0,3075,1897,248,132.0,0.00,Active,,,https://www.redfin.com/IL/Chicago/11916-S-Lowe-Ave-60628/home/13058448,MRED as Distributed by MLS Grid,11796888,N,Y,41.677319000000000,-87.638543600000000,273,2683,6899,METCALFE,FENGER HS,29,2
MLS Listing,,Single Family Residential,12048 S Lowe Ave,Chicago,IL,60628,235000,4.0,2.0,CHI - West Pullman,2200.0,10890,1905,95,107.0,0.00,Active,,,https://www.redfin.com/IL/Chicago/12048-S-Lowe-Ave-60628/home/13059724,MRED as Distributed by MLS Grid,11920164,N,Y,41.674640600000000,-87.638399000000000,125,3014,7285,METCALFE,FENGER HS,26,1
MLS Listing,,Single Family Residential,12406 S Lowe Ave,Chicago,IL,60628,271900,5.0,2.0,CHI - West Pullman,2700.0,4617,1952,13,101.0,0.00,Active,,,https://www.redfin.com/IL/Chicago/12406-S-Lowe-Ave-60628/home/12583238,MRED as Distributed by MLS Grid,11965550,N,Y,41.668489300000000,-87.638283400000000,112,3833,8180,METCALFE,FENGER HS,17,1
MLS Listing,,Vacant Land,6152 S Saint Lawrence Ave,Chicago,IL,60637,99000,,,CHI - Woodlawn,,3630,0,277,,0.00,Active,,,https://www.redfin.com/IL/Chicago/6152-S-Saint-Lawrence-Ave-60637/home/147833262,MRED as Distributed by MLS Grid,11774293.0,N,Y,41.782446700000000,-87.611193300000000,506,1312,595,FISKE,HYDE PARK,59,7
MLS Listing,,Multi-Family (2-4 Unit),6148 S Eberhart Ave,Chicago,IL,60637,139999,5.0,2.0,CHI - Woodlawn,,0,1914,2,,0.00,Active,,,https://www.redfin.com/IL/Chicago/6148-S-Eberhart-Ave-60637/home/180730410,MRED as Distributed by MLS Grid,11972934,N,Y,41.782488300000000,-87.613523300000000,493,1511,418,FISKE,HYDE PARK,56,6
MLS Listing,,Vacant Land,6046 S Eberhart Ave,Chicago,IL,60637,105000,,,CHI - Woodlawn,,6250,0,8,,0.00,Active,,,https://www.redfin.com/IL/Chicago/6046-S-Eberhart-Ave-60637/home/147728842,MRED as Distributed by MLS Grid,11968685,N,Y,41.784351000000000,-87.613587900000000,215,1376,667,FISKE,HYDE PARK,54,2
MLS Listing,,Vacant Land,6206 S Vernon Ave,Chicago,IL,60637,50000,,,CHI - Woodlawn,,3484,0,178,,0.00,Active,,,https://www.redfin.com/IL/Chicago/6206-S-Vernon-Ave-60637/home/13942789,MRED as Distributed by MLS Grid,11857115,N,Y,41.781761000000000,-87.614806000000000,599,1690,257,FISKE,HYDE PARK,48,3
MLS Listing,,Vacant Land,6242 S Eberhart Ave,Chicago,IL,60637,50000,,,CHI - Woodlawn,,3750,0,32,,0.00,Active,,,https://www.redfin.com/IL/Chicago/6242-S-Eberhart-Ave-60637/home/189063686,MRED as Distributed by MLS Grid,11950301,N,Y,41.780804000000000,-87.613566000000000,745,1672,242,FISKE,HYDE PARK,54,7
MLS Listing,,Vacant Land,6036 S Rhodes Ave,Chicago,IL,60637,84900,,,CHI - Woodlawn,,3125,0,21,,0.00,Active,,,https://www.redfin.com/IL/Chicago/6036-S-Rhodes-Ave-60637/home/13943738,MRED as Distributed by MLS Grid,11961351.0,N,Y,41.784603800000000,-87.612418800000000,181,1243,753,FISKE,HYDE PARK,55,3
MLS Listing,,Condo/Co-op,6237 S Greenwood Ave #1,Chicago,IL,60637,154400,2.0,1.5,CHI - Woodlawn,1430.0,0,1898,23,108.0,465.00,Active,,,https://www.redfin.com/IL/Chicago/6237-S-Greenwood-Ave-60637/unit-1/home/12761740,MRED as Distributed by MLS Grid,11960138,N,Y,41.781241600000000,-87.599120100000000,431,1119,763,FISKE,HYDE PARK,53,8
MLS Listing,,Condo/Co-op,1131 E 61st St #3,Chicago,IL,60637,189000,2.0,1.0,CHI - Woodlawn,,0,1920,7,,174.00,Active,,,https://www.redfin.com/IL/Chicago/1131-E-61st-St-60637/unit-3/home/12692776,MRED as Distributed by MLS Grid,11969232,N,Y,41.783990400000000,-87.598443900000000,302,784,991,FISKE,HYDE PARK,61,14
MLS Listing,,Vacant Land,6225 S Saint Lawrence Ave,Chicago,IL,60637,175555,,,CHI - Woodlawn,,3049,0,17,,0.00,Active,,,https://www.redfin.com/IL/Chicago/6225-S-Saint-Lawrence-Ave-60637/home/184033817,MRED as Distributed by MLS Grid,11963800,N,Y,41.781453200000000,-87.610535400000000,590,1366,548,FISKE,HYDE PARK,59,7
MLS Listing,,Vacant Land,6121 S King Dr,Chicago,IL,60637,110000,,,CHI - Woodlawn,,6225,0,277,,0.00,Active,,,https://www.redfin.com/IL/Chicago/6121-S-King-Dr-60637/home/147881449,MRED as Distributed by MLS Grid,11774290,N,Y,41.783109300000000,-87.615345700000000,396,1635,446,FISKE,HYDE PARK,46,3
MLS Listing,,Townhouse,6200 S Ingleside Ave Unit 5C,Chicago,IL,60637,324999,3.0,3.0,Ingleside Court,1400.0,0,2000,57,232.0,100.00,Active,,,https://www.redfin.com/IL/Chicago/6200-S-Ingleside-Ave-60637/unit-5C/home/12692155,MRED as Distributed by MLS Grid,11936480,N,Y,41.781982000000000,-87.603123400000000,142,949,394,FISKE,HYDE PARK,61,8
MLS Listing,,Vacant Land,6156-58 S Champlain Ave,Chicago,IL,60637,299000,,,CHI - Woodlawn,,6115,0,6,,0.00,Active,,,https://www.redfin.com/IL/Chicago/6156-S-Champlain-Ave-60637/home/188045658,MRED as Distributed by MLS Grid,11969933,N,Y,41.782395400000000,-87.609623800000000,487,1193,523,FISKE,HYDE PARK,59,7
MLS Listing,,Vacant Land,500 E 63rd St,Chicago,IL,60637,350000,,,CHI - Woodlawn,,12632,0,161,,0.00,Active,,,https://www.redfin.com/IL/Chicago/500-E-63rd-St-60637/home/180054128,MRED as Distributed by MLS Grid,11860563,N,Y,41.780562000000000,-87.612894000000000,783,1643,302,FISKE,HYDE PARK,56,7
MLS Listing,,Multi-Family (2-4 Unit),6240 S Champlain Ave,Chicago,IL,60637,449900,10.0,3.0,CHI - Woodlawn,,0,1910,17,,0.00,Active,,,https://www.redfin.com/IL/Chicago/6240-S-Champlain-Ave-60637/home/13943125,MRED as Distributed by MLS Grid,11955469,N,Y,41.780965400000000,-87.609863200000000,516,1375,457,FISKE,HYDE PARK,59,7
MLS Listing,,Townhouse,6211 S Ellis Ave Unit B,Chicago,IL,60637,674800,4.0,3.5,CHI - Woodlawn,,3125,2022,152,,130.00,Active,February-4-2024 02:00 PM,February-4-2024 04:00 PM,https://www.redfin.com/IL/Chicago/6211-S-Ellis-Ave-60637/unit-B/home/187345145,MRED as Distributed by MLS Grid,11877796.0,N,Y,41.781654400000000,-87.600747200000000,339,1012,603,FISKE,HYDE PARK,58,9
MLS Listing,,Townhouse,6209 S Ellis Ave Unit E,Chicago,IL,60637,689800,4.0,3.5,CHI - Woodlawn,,3125,2022,152,,130.00,Active,February-4-2024 02:00 PM,February-4-2024 04:00 PM,https://www.redfin.com/IL/Chicago/6209-S-Ellis-Ave-60637/unit-E/home/185445933,MRED as Distributed by MLS Grid,11877783.0,N,Y,41.780879700000000,-87.601079200000000,239,1121,538,FISKE,HYDE PARK,54,7
MLS Listing,,Townhouse,6218 S Woodlawn Ave Unit D,Chicago,IL,60637,735000,3.0,2.5,CHI - Woodlawn,2250.0,0,2023,213,327.0,115.00,Active,,,https://www.redfin.com/IL/Chicago/6218-S-Woodlawn-Ave-60637/unit-D/home/186029604,MRED as Distributed by MLS Grid,11820419.0,N,Y,41.781688700000000,-87.596606800000000,146,1183,1050,FISKE,HYDE PARK,45,9
MLS Listing,,Townhouse,6218 S Woodlawn Ave Unit H,Chicago,IL,60637,759000,3.0,2.5,CHI - Woodlawn,2300.0,0,2023,213,330.0,115.00,Active,,,https://www.redfin.com/IL/Chicago/6218-S-Woodlawn-Ave-60637/unit-H/home/175251977,MRED as Distributed by MLS Grid,11820430,N,Y,41.781688700000000,-87.596606800000000,146,1183,1050,FISKE,HYDE PARK,45,9
MLS Listing,,Single Family Residential,6209 E S Ellis Ave,Chicago,IL,60637,689800,4.0,3.5,CHI - Woodlawn,,3125,2023,33,,180.00,Active,,,https://www.redfin.com/IL/Chicago/6209-S-Ellis-Ave-60637/home/178443821,MRED as Distributed by MLS Grid,11954563.0,N,Y,41.780876000000000,-87.601079100000000,239,1121,538,FISKE,HYDE PARK,53,7
MLS Listing,,Single Family Residential,6227 E S Ellis Ave,Chicago,IL,60637,689800,4.0,3.5,CHI - Woodlawn,,3125,2023,33,,180.00,Active,February-4-2024 02:00 PM,February-4-2024 04:00 PM,https://www.redfin.com/IL/Chicago/6227-S-Ellis-Ave-60637/home/181387132,MRED as Distributed by MLS Grid,11954566.0,N,Y,41.781400100000000,-87.601091900000000,285,1044,555,FISKE,HYDE PARK,57,8
MLS Listing,,Multi-Family (2-4 Unit),6043 S Vernon Ave,Chicago,IL,60637,889000,9.0,6.0,CHI - Woodlawn,,3125,2023,6,,0.00,Active,,,https://www.redfin.com/IL/Chicago/6043-S-Vernon-Ave-60637/home/21878575,MRED as Distributed by MLS Grid,11969916,N,Y,41.784473400000000,-87.614125800000000,196,1423,668,FISKE,HYDE PARK,54,2
MLS Listing,,Multi-Family (5+ Unit),6235 S Ellis Ave,Chicago,IL,60637,980000,27.0,9.0,CHI - Woodlawn,,0,1900,78,,0.00,Active,,,https://www.redfin.com/IL/Chicago/6235-S-Ellis-Ave-60637/home/13944501,MRED as Distributed by MLS Grid,11933482,N,Y,41.781261300000000,-87.600831900000000,294,1069,577,FISKE,HYDE PARK,57,8
MLS Listing,,Vacant Land,4537 S Springfield Ave,Chicago,IL,60632,95000,,,CHI - Archer Heights,,3750,0,172,,0.00,Active,,,https://www.redfin.com/IL/Chicago/4537-S-Springfield-Ave-60632/home/14034694,MRED as Distributed by MLS Grid,11862173.0,N,Y,41.810464300000000,-87.720886300000000,210,6932,1629,EDWARDS,CURIE HS,37,9
MLS Listing,,Vacant Land,4535 S Springfield Ave,Chicago,IL,60632,95000,,,CHI - Archer Heights,,3750,0,172,,0.00,Active,,,https://www.redfin.com/IL/Chicago/4535-S-Springfield-Ave-60632/home/145066216,MRED as Distributed by MLS Grid,11862126.0,N,Y,41.810516100000000,-87.721016200000000,219,6945,1633,EDWARDS,CURIE HS,38,9
MLS Listing,,Vacant Land,5024 S Archer Ave,Chicago,IL,60632,315044,,,CHI - Archer Heights,,2262,0,71,,0.00,Active,,,https://www.redfin.com/IL/Chicago/5024-S-Archer-Ave-60632/home/187312241,MRED as Distributed by MLS Grid,11936505,N,Y,41.801716200000000,-87.725022200000000,493,6065,281,EDWARDS,CURIE HS,37,9
MLS Listing,,Single Family Residential,4715 S Kilbourn Ave,Chicago,IL,60632,279999,4.0,2.0,CHI - Archer Heights,779.0,3123,1954,27,359.0,0.00,Active,,,https://www.redfin.com/IL/Chicago/4715-S-Kilbourn-Ave-60632/home/189104733,MRED as Distributed by MLS Grid,11957891,N,Y,41.807267500000000,-87.735493100000000,211,7440,1651,EDWARDS,CURIE HS,22,3
MLS Listing,,Single Family Residential,5204 S Kilbourn Ave,Chicago,IL,60632,364999,6.0,2.0,CHI - Archer Heights,3750.0,3750,1953,32,97.0,0.00,Active,February-4-2024 01:00 PM,February-4-2024 03:00 PM,https://www.redfin.com/IL/Chicago/5204-S-Kilbourn-Ave-60632/home/14020617,MRED as Distributed by MLS Grid,11955048.0,N,Y,41.798369200000000,-87.735819400000000,585,6508,1286,EDWARDS,CURIE HS,33,3
MLS Listing,,Single Family Residential,4935 S Keeler Ave,Chicago,IL,60632,429900,8.0,3.0,CHI - Archer Heights,1898.0,3750,1915,16,227.0,0.00,Active,,,https://www.redfin.com/IL/Chicago/4935-S-Keeler-Ave-60632/home/14021986,MRED as Distributed by MLS Grid,11964314,N,Y,41.803136100000000,-87.728090400000000,645,6441,632,EDWARDS,CURIE HS,38,9
MLS Listing,,Vacant Land,5155 S Archer Ave,Chicago,IL,60632,999990,,,CHI - Archer Heights,,0,0,2477,,0.00,Active,,,https://www.redfin.com/IL/Chicago/5155-S-Archer-Ave-60632/home/14020776,MRED as Distributed by MLS Grid,9604507,N,Y,41.800087000000000,-87.732129000000000,384,6391,856,EDWARDS,CURIE HS,20,0
MLS Listing,,Vacant Land,206 N Lockwood Ave,Chicago,IL,60644,39360,,,CHI - Austin,,4791,0,1424,,0.00,Active,,,https://www.redfin.com/IL/Chicago/206-N-Lockwood-Ave-60644/home/17557391,MRED as Distributed by MLS Grid,10665266,N,Y,41.884642700000000,-87.757933400000000,474,1971,500,ELLINGTON,DOUGLASS H,37,1
MLS Listing,,Vacant Land,125 N Waller Ave,Chicago,IL,60644,169900,,,CHI - Austin,,8276,0,192,,0.00,Active,,,https://www.redfin.com/IL/Chicago/125-N-Waller-Ave-60644/home/147872055,MRED as Distributed by MLS Grid,11844092,N,Y,41.883085300000000,-87.767896400000000,673,1705,690,ELLINGTON,DOUGLASS H,46,5
MLS Listing,,Single Family Residential,142 N Lotus Ave,Chicago,IL,60644,229900,4.0,2.0,CHI - Austin,1155.0,0,1886,89,199.0,0.00,Active,,,https://www.redfin.com/IL/Chicago/142-N-Lotus-Ave-60644/home/13264747,MRED as Distributed by MLS Grid,11926406,N,Y,41.883570100000000,-87.762043500000000,625,1716,698,ELLINGTON,DOUGLASS H,42,1
MLS Listing,,Single Family Residential,135 N Lotus Ave,Chicago,IL,60644,198000,3.0,1.0,CHI - Austin,1200.0,4948,1915,97,165.0,0.00,Active,,,https://www.redfin.com/IL/Chicago/135-N-Lotus-Ave-60644/home/13265205,MRED as Distributed by MLS Grid,11920142,N,Y,41.883348100000000,-87.761343200000000,659,1693,771,ELLINGTON,DOUGLASS H,40,1
MLS Listing,,Multi-Family (2-4 Unit),321 N Long Ave,Chicago,IL,60644,234900,5.0,2.0,CHI - Austin,,0,1890,134,,0.00,Active,,,https://www.redfin.com/IL/Chicago/321-N-Long-Ave-60644/home/13264637,MRED as Distributed by MLS Grid,11892546,N,Y,41.886460700000000,-87.759923300000000,198,2178,560,ELLINGTON,DOUGLASS H,32,0
MLS Listing,,Multi-Family (2-4 Unit),124 N Menard Ave,Chicago,IL,60644,499000,8.0,4.0,CHI - Austin,,3049,1964,139,,0.00,Active,,,https://www.redfin.com/IL/Chicago/124-N-Menard-Ave-60644/home/13265043,MRED as Distributed by MLS Grid,11886773,N,Y,41.882962800000000,-87.770148300000000,687,1775,785,ELLINGTON,DOUGLASS H,44,5
MLS Listing,,Multi-Family (2-4 Unit),314 N Latrobe Ave,Chicago,IL,60644,480000,7.0,3.0,CHI - Austin,,3484,1907,15,,0.00,Active,,,https://www.redfin.com/IL/Chicago/314-N-Latrobe-Ave-60644/home/13264527,MRED as Distributed by MLS Grid,11964735,N,Y,41.886095900000000,-87.756825200000000,258,2217,260,ELLINGTON,DOUGLASS H,29,0
MLS Listing,,Vacant Land,3252 W 23rd St,Chicago,IL,60623,45000,,,CHI - South Lawndale,,10890,0,65,,0.00,Active,,,https://www.redfin.com/IL/Chicago/3252-W-23rd-St-60623/home/180236657,MRED as Distributed by MLS Grid,11939876,N,Y,41.850096000000000,-87.707312600000000,446,1271,638,KANOON,FARRAGUT H,45,5
MLS Listing,,Single Family Residential,2341 S Sawyer Ave,Chicago,IL,60623,229900,7.0,3.0,CHI - South Lawndale,1000.0,3125,0,72,230.0,0.00,Active,,,https://www.redfin.com/IL/Chicago/2341-S-Sawyer-Ave-60623/home/12555605,MRED as Distributed by MLS Grid,11936207,N,Y,41.848706800000000,-87.706166000000000,589,1315,815,KANOON,FARRAGUT H,42,5
MLS Listing,,Multi-Family (2-4 Unit),3311 W Cermak Rd,Chicago,IL,60623,260000,9.0,4.0,CHI - South Lawndale,,3125,1890,66,,0.00,Active,,,https://www.redfin.com/IL/Chicago/3311-W-Cermak-Rd-60623/home/14151151,MRED as Distributed by MLS Grid,11939531,N,Y,41.851548100000000,-87.708159400000000,245,1239,491,KANOON,FARRAGUT H,42,2
MLS Listing,,Multi-Family (2-4 Unit),2538-2540 S Spaulding Ave,Chicago,IL,60623,279000,8.0,4.0,CHI - South Lawndale,,0,1900,9,,0.00,Active,,,https://www.redfin.com/IL/Chicago/2538-S-Spaulding-Ave-60623/home/14149231,MRED as Distributed by MLS Grid,11968710,N,Y,41.845148700000000,-87.707755700000000,505,1841,1367,KANOON,FARRAGUT H,34,7
MLS Listing,,Multi-Family (2-4 Unit),2542 S Albany Ave,Chicago,IL,60623,749000,6.0,4.0,CHI - South Lawndale,,2613,1897,63,,0.00,Active,,,https://www.redfin.com/IL/Chicago/2542-S-Albany-Ave-60623/home/14152232,MRED as Distributed by MLS Grid,11940951,N,Y,41.845081100000000,-87.702885900000000,378,1597,1381,KANOON,FARRAGUT H,37,6
MLS Listing,,Multi-Family (5+ Unit),3245 W 23rd St,Chicago,IL,60623,1950000,20.0,13.0,CHI - South Lawndale,,3000,1960,152,,0.00,Active,,,https://www.redfin.com/IL/Chicago/3245-W-23rd-St-60623/home/14150549,MRED as Distributed by MLS Grid,11876743,N,Y,41.849702000000000,-87.707004700000000,512,1281,685,KANOON,FARRAGUT H,44,5
MLS Listing,,Single Family Residential,11140 S Esmond St,Chicago,IL,60643,119900,3.0,1.5,CHI - Morgan Park,1858.0,6952,0,1,65.0,0.00,Active,,,https://www.redfin.com/IL/Chicago/11140-S-Esmond-St-60643/home/52646370,MRED as Distributed by MLS Grid,11973340,N,Y,41.690830500000000,-87.669151500000000,258,4913,6850,ESMOND,MORGAN PAR,28,0
MLS Listing,,Single Family Residential,11549 S Church St,Chicago,IL,60643,80000,4.0,2.0,CHI - Morgan Park,1386.0,4617,1899,8,58.0,0.00,Active,,,https://www.redfin.com/IL/Chicago/11549-S-Church-St-60643/home/13069048,MRED as Distributed by MLS Grid,11965800.0,N,Y,41.683251300000000,-87.669536700000000,102,5130,7698,ESMOND,MORGAN PAR,23,4
MLS Listing,,Single Family Residential,11747 S Longwood Dr,Chicago,IL,60643,350000,4.0,3.0,CHI - Morgan Park,1966.0,14200,1926,27,178.0,0.00,Active,,,https://www.redfin.com/IL/Chicago/11747-S-Longwood-Dr-60643/home/13069711,MRED as Distributed by MLS Grid,11957502,N,Y,41.679655100000000,-87.674506000000000,333,5815,8465,ESMOND,MORGAN PAR,8,2
MLS Listing,,Single Family Residential,11400 S Church St,Chicago,IL,60643,259900,4.0,2.5,CHI - Morgan Park,1350.0,0,0,110,193.0,0.00,Active,,,https://www.redfin.com/IL/Chicago/11400-S-Church-St-60643/home/13068813,MRED as Distributed by MLS Grid,11891146,N,Y,41.687076000000000,-87.668188300000000,447,4863,7173,ESMOND,MORGAN PAR,29,0
MLS Listing,,Single Family Residential,11347 S Church St,Chicago,IL,60643,275000,3.0,3.0,CHI - Morgan Park,1538.0,7501,1902,18,179.0,0.00,Active,,,https://www.redfin.com/IL/Chicago/11347-S-Church-St-60643/home/13068932,MRED as Distributed by MLS Grid,11962261,N,Y,41.687409800000000,-87.667379300000000,541,4766,7075,ESMOND,MORGAN PAR,32,0
MLS Listing,,Single Family Residential,10952 S Church St,Chicago,IL,60643,289700,3.0,2.0,CHI - Morgan Park,1440.0,3125,1918,40,201.0,0.00,Active,,,https://www.redfin.com/IL/Chicago/10952-S-Church-St-60643/home/13070936,MRED as Distributed by MLS Grid,11951369,N,Y,41.694457700000000,-87.663567100000000,460,4300,6027,ESMOND,MORGAN PAR,28,2
MLS Listing,,Single Family Residential,11559 S Hale Ave,Chicago,IL,60643,385000,4.0,3.0,CHI - Morgan Park,1809.0,0,1920,186,213.0,0.00,Active,,,https://www.redfin.com/IL/Chicago/11559-S-Hale-Ave-60643/home/13068984,MRED as Distributed by MLS Grid,11777824.0,N,Y,41.682878600000000,-87.672271800000000,80,5438,7941,ESMOND,MORGAN PAR,12,2
MLS Listing,,Single Family Residential,10916 S Church St,Chicago,IL,60643,649900,7.0,4.0,CHI - Morgan Park,3045.0,2500,1905,54,213.0,0.00,Active,,,https://www.redfin.com/IL/Chicago/10916-S-Church-St-60643/home/13069826,MRED as Distributed by MLS Grid,11946095.0,N,Y,41.695374500000000,-87.662924000000000,550,4242,5881,ESMOND,MORGAN PAR,26,2
MLS Listing,,Condo/Co-op,2323 W Pershing Rd #135,Chicago,IL,60609,200000,2.0,1.0,CHI - New City,1000.0,0,1942,29,200.0,504.00,Active,,,https://www.redfin.com/IL/Chicago/2323-W-Pershing-Rd-60609/unit-135/home/18923833,MRED as Distributed by MLS Grid,11957156,N,Y,41.822435800000000,-87.683154600000000,101,5168,1102,EVERETT,KELLY HS,34,5
MLS Listing,,Condo/Co-op,2323 W Pershing Rd #328,Chicago,IL,60609,229900,2.0,1.0,CHI - New City,1160.0,0,2006,90,198.0,655.00,Active,,,https://www.redfin.com/IL/Chicago/2323-W-Pershing-Rd-60609/unit-328/home/18920199,MRED as Distributed by MLS Grid,11924462,N,Y,41.822435800000000,-87.683154600000000,101,5168,1102,EVERETT,KELLY HS,34,5
MLS Listing,,Condo/Co-op,2323 W Pershing Rd #228,Chicago,IL,60609,240000,2.0,1.0,CHI - New City,1160.0,0,1950,18,207.0,655.00,Active,,,https://www.redfin.com/IL/Chicago/2323-W-Pershing-Rd-60609/unit-228/home/18941192,MRED as Distributed by MLS Grid,11959663,N,Y,41.822435800000000,-87.683154600000000,101,5168,1102,EVERETT,KELLY HS,34,5
MLS Listing,,Vacant Land,2422 W 35th St,Chicago,IL,60632,110000,,,CHI - McKinley Park,,3049,0,1106,,0.00,Active,,,https://www.redfin.com/IL/Chicago/2422-W-35th-St-60632/home/147819332,MRED as Distributed by MLS Grid,10977298,N,Y,41.830518300000000,-87.686039300000000,642,3922,624,EVERETT,KELLY HS,43,1
MLS Listing,,Condo/Co-op,2323 W Pershing Rd #116,Chicago,IL,60609,258888,3.0,2.0,CHI - New City,1501.0,0,2006,31,172.0,787.00,Active,,,https://www.redfin.com/IL/Chicago/2323-W-Pershing-Rd-60609/unit-116/home/18934318,MRED as Distributed by MLS Grid,11956035,N,Y,41.822435800000000,-87.683154600000000,101,5168,1102,EVERETT,KELLY HS,34,5
MLS Listing,,Multi-Family (2-4 Unit),3440 S Hamilton Ave,Chicago,IL,60608,475000,6.0,2.0,CHI - McKinley Park,,3484,1964,3,,0.00,Active,,,https://www.redfin.com/IL/Chicago/3440-S-Hamilton-Ave-60608/home/14077365,MRED as Distributed by MLS Grid,11971414,N,Y,41.830949800000000,-87.679243600000000,37,4186,256,EVERETT,KELLY HS,47,4
MLS Listing,,Parking,3555 W Ainslie St Unit P1,Chicago,IL,60625,17000,,,CHI - Albany Park,,0,0,274,,25.00,Active,,,https://www.redfin.com/IL/Chicago/3555-W-Ainslie-St-60625/unit-P-1/home/26804466,MRED as Distributed by MLS Grid,11721360,N,Y,41.970042600000000,-87.718012000000000,522,2361,628,VOLTA,ROOSEVELT,39,14
MLS Listing,,Condo/Co-op,4820 N Avers Ave Unit GE,Chicago,IL,60625,150000,2.0,1.0,CHI - Albany Park,800.0,0,1924,18,188.0,190.00,Active,,,https://www.redfin.com/IL/Chicago/4820-N-Avers-Ave-60625/unit-GE/home/18929336,MRED as Distributed by MLS Grid,11963364,N,Y,41.968854700000000,-87.724809700000000,471,3136,1307,VOLTA,ROOSEVELT,29,8
MLS Listing,,Condo/Co-op,3807 W Ainslie St Unit B,Chicago,IL,60625,195000,2.0,1.0,CHI - Albany Park,900.0,0,0,32,217.0,285.00,Active,,,https://www.redfin.com/IL/Chicago/3807-W-Ainslie-St-60625/unit-B/home/12601268,MRED as Distributed by MLS Grid,11954968,N,Y,41.969963500000000,-87.723583300000000,566,2959,1202,VOLTA,ROOSEVELT,35,9
MLS Listing,,Single Family Residential,5041 N Harding Ave,Chicago,IL,60625,650000,4.0,4.0,CHI - Albany Park,2546.0,4181,0,2,255.0,0.00,Active,,,https://www.redfin.com/IL/Chicago/5041-N-Harding-Ave-60625/home/13495447,MRED as Distributed by MLS Grid,11972506.0,N,Y,41.973150800000000,-87.726720000000000,173,3220,1702,VOLTA,ROOSEVELT,40,9
MLS Listing,,Multi-Family (5+ Unit),5047 N Central Park Ave,Chicago,IL,60625,2295000,27.0,12.0,CHI - North Park,,10082,1923,103,,0.00,Active,,,https://www.redfin.com/IL/Chicago/5047-N-Central-Park-Ave-60625/home/13493902,MRED as Distributed by MLS Grid,11914692,N,Y,41.973355200000000,-87.718027400000000,110,2254,978,VOLTA,ROOSEVELT,37,11
MLS Listing,,Single Family Residential,5148 W George St,Chicago,IL,60641,345000,4.0,1.0,Belmont Central,3450.0,3762,1926,27,100.0,0.00,Active,,,https://www.redfin.com/IL/Chicago/5148-W-George-St-60641/home/13441445,MRED as Distributed by MLS Grid,11896227,N,Y,41.933462200000000,-87.755978400000000,730,2228,4171,FALCONER,FOREMAN HS,24,3
MLS Listing,,Single Family Residential,5224 W Nelson St,Chicago,IL,60641,325000,5.0,2.0,CHI - Belmont Cragin,,3125,1927,6,,0.00,Active,,,https://www.redfin.com/IL/Chicago/5224-W-Nelson-St-60641/home/13442953,MRED as Distributed by MLS Grid,11969638,N,Y,41.936166100000000,-87.757625700000000,927,1796,4041,FALCONER,FOREMAN HS,26,5
MLS Listing,,Single Family Residential,3030 N Knox Ave,Chicago,IL,60641,549000,4.0,2.0,CHI - Belmont Cragin,1810.0,3484,1927,81,303.0,0.00,Active,,,https://www.redfin.com/IL/Chicago/3030-N-Knox-Ave-60641/home/13446667,MRED as Distributed by MLS Grid,11927089,N,Y,41.936167900000000,-87.743503200000000,425,1731,2974,FALCONER,FOREMAN HS,34,9
MLS Listing,,Single Family Residential,5012 W Fletcher St,Chicago,IL,60641,359000,3.0,1.0,CHI - Belmont Cragin,,4375,1915,4,,0.00,Active,,,https://www.redfin.com/IL/Chicago/5012-W-Fletcher-St-60641/home/13441548,MRED as Distributed by MLS Grid,11969362.0,N,Y,41.938039500000000,-87.752363900000000,286,2048,3411,FALCONER,FOREMAN HS,28,4
MLS Listing,,Single Family Residential,3355 N Keating Ave,Chicago,IL,60641,380000,3.0,1.5,CHI - Portage Park,2284.0,4575,1918,8,166.0,0.00,Active,February-4-2024 11:00 AM,February-4-2024 02:00 PM,https://www.redfin.com/IL/Chicago/3355-N-Keating-Ave-60641/home/13458715,MRED as Distributed by MLS Grid,11950110.0,N,Y,41.942321800000000,-87.744982900000000,451,1812,2371,FALCONER,FOREMAN HS,36,3
MLS Listing,,Multi-Family (2-4 Unit),4911 W Melrose St,Chicago,IL,60641,409900,4.0,2.0,CHI - Portage Park,,3484,1925,178,,0.00,Active,,,https://www.redfin.com/IL/Chicago/4911-W-Melrose-St-60641/home/13459378,MRED as Distributed by MLS Grid,11813096,N,Y,41.939541300000000,-87.749941300000000,122,2178,3060,FALCONER,FOREMAN HS,27,3
MLS Listing,,Multi-Family (2-4 Unit),4929 W Wolfram St,Chicago,IL,60641,659000,6.0,3.0,CHI - Belmont Cragin,,4125,1921,58,,0.00,Active,,,https://www.redfin.com/IL/Chicago/4929-W-Wolfram-St-60641/home/13440671,MRED as Distributed by MLS Grid,11943540.0,N,Y,41.932131600000000,-87.750225000000000,914,2662,3897,FALCONER,FOREMAN HS,29,8
MLS Listing,,Vacant Land,2848 N Cicero Ave,Chicago,IL,60641,899000,,,CHI - Belmont Cragin,,9750,0,146,,0.00,Active,,,https://www.redfin.com/IL/Chicago/2848-N-Cicero-Ave-60641/home/161006416,MRED as Distributed by MLS Grid,11859980,N,Y,41.932921100000000,-87.746995800000000,856,2289,3593,FALCONER,FOREMAN HS,34,10
MLS Listing,,Vacant Land,2836 N Cicero Ave,Chicago,IL,60641,859000,,,CHI - Belmont Cragin,,13750,0,146,,0.00,Active,,,https://www.redfin.com/IL/Chicago/2836-N-Cicero-Ave-60641/home/49702793,MRED as Distributed by MLS Grid,11859872,N,Y,41.932687000000000,-87.747043000000000,888,2310,3625,FALCONER,FOREMAN HS,32,10
MLS Listing,,Multi-Family (5+ Unit),4632-38 W Barry Ave,Chicago,IL,60641,1430000,16.0,8.0,CHI - Belmont Cragin,,8280,1913,13,,0.00,Active,,,https://www.redfin.com/IL/Chicago/4632-W-Barry-Ave-60641/home/189489163,MRED as Distributed by MLS Grid,11953411,N,Y,41.937193800000000,-87.743519200000000,277,1685,2847,FALCONER,FOREMAN HS,34,10
MLS Listing,,Single Family Residential,5709 N Mango Ave,Chicago,IL,60646,361500,3.0,1.0,CHI - Jefferson Park,937.0,3484,1951,9,386.0,0.00,Active,,,https://www.redfin.com/IL/Chicago/5709-N-Mango-Ave-60646/home/13510767,MRED as Distributed by MLS Grid,11968530.0,N,Y,41.985073300000000,-87.771661200000000,795,4705,2473,FARNSWORTH,TAFT HS,18,7
MLS Listing,,Condo/Co-op,5778 N Elston Ave #0,Chicago,IL,60646,364999,3.0,2.0,CHI - Jefferson Park,2900.0,3125,1958,180,126.0,0.00,Active,,,https://www.redfin.com/IL/Chicago/5778-N-Elston-Ave-60646/home/18907988,MRED as Distributed by MLS Grid,11853815.0,N,Y,41.986208800000000,-87.771316900000000,969,4735,2605,FARNSWORTH,TAFT HS,14,6
MLS Listing,,Single Family Residential,5524 N Luna Ave,Chicago,IL,60630,555000,5.0,3.0,CHI - Jefferson Park,2200.0,3125,1925,98,252.0,0.00,Active,,,https://www.redfin.com/IL/Chicago/5524-N-Luna-Ave-60630/home/13499400,MRED as Distributed by MLS Grid,11917250,N,Y,41.981894100000000,-87.767376700000000,698,5231,1834,FARNSWORTH,TAFT HS,21,11
MLS Listing,,Vacant Land,5700 N Central Ave,Chicago,IL,60646,3000000,,,CHI - Jefferson Park,,0,0,83,,0.00,Active,,,https://www.redfin.com/IL/Chicago/5700-N-Manton-Ave-60646/home/13509651,MRED as Distributed by MLS Grid,11930128,N,Y,41.985891900000000,-87.768511500000000,1037,5049,2437,FARNSWORTH,TAFT HS,16,6
MLS Listing,,Parking,1925 N Humboldt Blvd Unit P-14,Chicago,IL,60647,18000,,,Humboltd Condos,,150,2005,878,,0.00,Active,,,https://www.redfin.com/IL/Chicago/1925-N-Humboldt-Blvd-60647/unit-P14/home/18915137,MRED as Distributed by MLS Grid,11214586,N,Y,41.916364100000000,-87.701461500000000,371,2214,977,YATES,CLEMENTE H,32,41
MLS Listing,,Multi-Family (2-4 Unit),1635 N Kedzie Ave,Chicago,IL,60647,460000,7.0,4.5,CHI - Humboldt Park,,3125,0,7,,0.00,Active,,,https://www.redfin.com/IL/Chicago/1635-N-Kedzie-Ave-60647/home/13416141,MRED as Distributed by MLS Grid,11968944,N,Y,41.911172100000000,-87.706552400000000,202,1729,1937,YATES,CLEMENTE H,32,28
MLS Listing,,Multi-Family (2-4 Unit),3138 W Wabansia Ave,Chicago,IL,60647,475000,4.0,2.0,CHI - Humboldt Park,,4356,1887,37,,0.00,Active,,,https://www.redfin.com/IL/Chicago/3138-W-Wabansia-Ave-60647/home/13415993,MRED as Distributed by MLS Grid,11953145,N,Y,41.912141800000000,-87.706119400000000,242,1841,1790,YATES,CLEMENTE H,34,32
MLS Listing,,Single Family Residential,1941 N Sawyer Ave,Chicago,IL,60647,499999,5.0,2.0,CHI - Logan Square,1460.0,4425,1880,17,342.0,0.00,Active,February-4-2024 11:30 AM,February-4-2024 01:00 PM,https://www.redfin.com/IL/Chicago/1941-N-Sawyer-Ave-60647/home/13418134,MRED as Distributed by MLS Grid,11962503,N,Y,41.916811800000000,-87.708413600000000,315,2584,1495,YATES,CLEMENTE H,31,26
MLS Listing,,Condo/Co-op,1938 N Sawyer Ave #2,Chicago,IL,60647,799000,3.0,2.0,Logan Square,1900.0,0,2023,17,421.0,250.00,Active,February-4-2024 12:00 PM,February-4-2024 01:30 PM,https://www.redfin.com/IL/Chicago/1938-N-Sawyer-Ave-60647/unit-2/home/185296553,MRED as Distributed by MLS Grid,11963669,N,Y,41.916757200000000,-87.708622400000000,313,2586,1519,YATES,CLEMENTE H,32,26
MLS Listing,,Single Family Residential,1736 N Humboldt Blvd,Chicago,IL,60647,1200000,5.0,3.5,CHI - Humboldt Park,,3125,2020,19,,0.00,Active,,,https://www.redfin.com/IL/Chicago/1736-N-Humboldt-Blvd-60647/home/113144248,MRED as Distributed by MLS Grid,11937327,N,Y,41.913105200000000,-87.702641900000000,103,1869,1469,YATES,CLEMENTE H,38,38
MLS Listing,,Townhouse,2001 N Albany Ave,Chicago,IL,60647,695000,3.0,2.5,CHI - Logan Square,2500.0,0,2015,3,278.0,275.00,Active,February-11-2024 12:00 PM,February-11-2024 02:00 PM,https://www.redfin.com/IL/Chicago/2001-N-Albany-Ave-60647/home/171312425,MRED as Distributed by MLS Grid,11971700.0,N,Y,41.917521900000000,-87.705068100000000,483,2572,1125,YATES,CLEMENTE H,32,37
MLS Listing,,Vacant Land,1428 E 70th St,Chicago,IL,60637,80000,,,CHI - South Shore,,0,0,264,,0.00,Active,,,https://www.redfin.com/IL/Chicago/1428-E-70th-St-60637/home/175700105,MRED as Distributed by MLS Grid,11784593.0,N,Y,41.768111000000000,-87.589746000000000,61,1676,2555,WADSWORTH,HYDE PARK,36,3
MLS Listing,,Parking,6414 S Woodlawn Ave Unit U-3,Chicago,IL,60637,12500,,,CHI - Woodlawn,,150,2005,878,,10.00,Active,,,https://www.redfin.com/IL/Chicago/6414-S-Woodlawn-Ave-60637/unit-U-3/home/177424781,MRED as Distributed by MLS Grid,11213873,N,Y,41.778202200000000,-87.596448700000000,172,1651,1093,WADSWORTH,HYDE PARK,43,2
MLS Listing,,Parking,6800 S Dante Ave Unit P-13,Chicago,IL,60637,8000,,,CHI - South Shore,,180,2006,895,,0.00,Active,,,https://www.redfin.com/IL/Chicago/6800-S-Dante-Ave-60637/unit-P-13/home/177290045,MRED as Distributed by MLS Grid,11198230,N,Y,41.771342600000000,-87.589846200000000,526,2142,2229,WADSWORTH,HYDE PARK,42,2
MLS Listing,,Parking,6800 S Dante Ave Unit P-14,Chicago,IL,60637,8000,,,CHI - South Shore,,180,2006,895,,0.00,Active,,,https://www.redfin.com/IL/Chicago/6800-S-Dante-Ave-60637/unit-P-14/home/177707117,MRED as Distributed by MLS Grid,11198234,N,Y,41.771342600000000,-87.589846200000000,526,2142,2229,WADSWORTH,HYDE PARK,42,2
MLS Listing,,Parking,6800 S Dante Ave Unit P-15,Chicago,IL,60637,8000,,,CHI - South Shore,,180,2006,895,,0.00,Active,,,https://www.redfin.com/IL/Chicago/6800-S-Dante-Ave-60637/unit-P-15/home/177424797,MRED as Distributed by MLS Grid,11198238,N,Y,41.771342600000000,-87.589846200000000,526,2142,2229,WADSWORTH,HYDE PARK,42,2
MLS Listing,,Vacant Land,6632 S Drexel Ave,Chicago,IL,60637,99900,,,CHI - Woodlawn,,3149,0,88,,0.00,Active,,,https://www.redfin.com/IL/Chicago/6632-S-Drexel-Ave-60637/home/188492364,MRED as Distributed by MLS Grid,11925894.0,N,Y,41.774007900000000,-87.603728500000000,519,2141,970,WADSWORTH,HYDE PARK,42,3
MLS Listing,,Vacant Land,6508 S Woodlawn Ave,Chicago,IL,60637,75000,,,CHI - Woodlawn,,2516,0,131,,0.00,Active,,,https://www.redfin.com/IL/Chicago/6508-S-Woodlawn-Ave-60637/home/143408845,MRED as Distributed by MLS Grid,11893660.0,N,Y,41.776502000000000,-87.596448900000000,170,1886,1191,WADSWORTH,HYDE PARK,38,1
MLS Listing,,Vacant Land,6744 S Dorchester Ave,Chicago,IL,60637,60000,,,CHI - South Shore,,4250,0,171,,0.00,Active,,,https://www.redfin.com/IL/Chicago/6744-S-Dorchester-Ave-60637/home/147882477,MRED as Distributed by MLS Grid,11862376.0,N,Y,41.771702300000000,-87.591530000000000,630,2247,2048,WADSWORTH,HYDE PARK,41,2
MLS Listing,,Vacant Land,6538 S Kimbark Ave,Chicago,IL,60638,100000,,,CHI - Woodlawn,,4125,0,176,,0.00,Active,,,https://www.redfin.com/IL/Chicago/6538-S-Kimbark-Ave-60637/home/186491449,MRED as Distributed by MLS Grid,11858627.0,N,Y,41.775764400000000,-87.594985000000000,173,2049,1387,WADSWORTH,HYDE PARK,43,1
MLS Listing,,Condo/Co-op,6825 S Harper Ave Unit 1S,Chicago,IL,60637,174900,2.0,2.0,CHI - South Shore,1200.0,0,1931,95,146.0,329.00,Active,,,https://www.redfin.com/IL/Chicago/6825-S-Harper-Ave-60637/unit-1S/home/26824489,MRED as Distributed by MLS Grid,11922087,N,Y,41.770750500000000,-87.587721300000000,441,2009,2472,WADSWORTH,HYDE PARK,41,3
MLS Listing,,Vacant Land,1520 E 66th Pl,Chicago,IL,60637,160000,,,CHI - Woodlawn,,5670,0,173,,0.00,Active,,,https://www.redfin.com/IL/Chicago/1520-E-66th-Pl-60637/home/147835171,MRED as Distributed by MLS Grid,11860184,N,Y,41.774507000000000,-87.587933000000000,204,1892,2175,WADSWORTH,HYDE PARK,41,2
MLS Listing,,Vacant Land,6321 S Ingleside Ave,Chicago,IL,60637,199000,,,CHI - Woodlawn,,3049,0,13,,0.00,Active,,,https://www.redfin.com/IL/Chicago/6321-S-Ingleside-Ave-60637/home/101675677,MRED as Distributed by MLS Grid,11965868,N,Y,41.779747500000000,-87.601355800000000,178,1285,508,WADSWORTH,HYDE PARK,49,7
MLS Listing,,Condo/Co-op,6547 S Woodlawn Ave #2,Chicago,IL,60637,205900,3.0,2.0,CHI - Woodlawn,1700.0,0,1890,38,121.0,200.00,Active,,,https://www.redfin.com/IL/Chicago/6547-S-Woodlawn-Ave-60637/unit-2/home/12676148,MRED as Distributed by MLS Grid,11952261,N,Y,41.775430600000000,-87.595858700000000,72,2058,1330,WADSWORTH,HYDE PARK,37,1
MLS Listing,,Condo/Co-op,6617 S Ingleside Ave Unit 4S,Chicago,IL,60637,184900,2.0,2.0,CHI - Woodlawn,1150.0,0,2008,26,161.0,202.00,Active,,,https://www.redfin.com/IL/Chicago/6617-S-Ingleside-Ave-60637/unit-4S/home/13099719,MRED as Distributed by MLS Grid,11958638,N,Y,41.774438900000000,-87.601848900000000,322,2073,983,WADSWORTH,HYDE PARK,41,3
MLS Listing,,Condo/Co-op,6324 S Kimbark Ave #105,Chicago,IL,60637,174900,1.0,1.0,CHI - Woodlawn,650.0,0,0,29,269.0,235.00,Active,,,https://www.redfin.com/IL/Chicago/6324-S-Kimbark-Ave-60637/unit-105/home/12643367,MRED as Distributed by MLS Grid,11957136,N,Y,41.779751000000000,-87.595123800000000,328,1516,1197,WADSWORTH,HYDE PARK,45,6
MLS Listing,,Condo/Co-op,6601 S Kimbark Ave #1,Chicago,IL,60637,135000,2.0,1.0,CHI - Woodlawn,1600.0,0,1900,163,84.0,163.00,Active,,,https://www.redfin.com/IL/Chicago/6601-S-Kimbark-Ave-60637/unit-1/home/18912306,MRED as Distributed by MLS Grid,11868965,N,Y,41.774886000000000,-87.594221900000000,213,2204,1527,WADSWORTH,HYDE PARK,41,2
MLS Listing,,Condo/Co-op,1525 E 65th St #1,Chicago,IL,60637,212000,2.0,1.5,CHI - Woodlawn,1200.0,0,1910,114,177.0,254.00,Active,,,https://www.redfin.com/IL/Chicago/1525-E-65th-St-60637/unit-1/home/12673142,MRED as Distributed by MLS Grid,11908077,N,Y,41.776807100000000,-87.587861500000000,187,1837,2070,WADSWORTH,HYDE PARK,41,2
MLS Listing,,Vacant Land,1440 E 66th Pl,Chicago,IL,60637,140000,,,CHI - Woodlawn,,5040,0,172,,0.00,Active,,,https://www.redfin.com/IL/Chicago/1440-E-66th-Pl-60637/home/21875959,MRED as Distributed by MLS Grid,11862369,N,Y,41.774473900000000,-87.589647700000000,395,2079,2003,WADSWORTH,HYDE PARK,44,2
MLS Listing,,Vacant Land,1424 E Marquette Rd,Chicago,IL,60637,120000,,,CHI - Woodlawn,,3810,0,178,,0.00,Active,,,https://www.redfin.com/IL/Chicago/1424-E-Marquette-Rd-60637/home/147731265,MRED as Distributed by MLS Grid,11857138,N,Y,41.775386900000000,-87.590259400000000,460,2123,1885,WADSWORTH,HYDE PARK,44,2
MLS Listing,,Condo/Co-op,6825 S Harper Ave Unit 2S,Chicago,IL,60637,175000,2.0,2.0,CHI - South Shore,1200.0,0,1911,44,146.0,325.00,Active,,,https://www.redfin.com/IL/Chicago/6825-S-Harper-Ave-60637/unit-2S/home/26824479,MRED as Distributed by MLS Grid,11950713,N,Y,41.770750500000000,-87.587721300000000,441,2009,2472,WADSWORTH,HYDE PARK,41,3
MLS Listing,,Condo/Co-op,1411 E 67th Pl Unit 1E,Chicago,IL,60637,249900,4.0,2.0,CHI - South Shore,1400.0,0,1912,9,179.0,178.00,Active,,,https://www.redfin.com/IL/Chicago/1411-E-67th-Pl-60637/unit-1E/home/175305137,MRED as Distributed by MLS Grid,11968512,N,Y,41.772121000000000,-87.590635000000000,547,2277,2089,WADSWORTH,HYDE PARK,38,2
MLS Listing,,Vacant Land,6821 S Harper Ave,Chicago,IL,60637,249000,,,CHI - South Shore,,3920,0,25,,0.00,Active,,,https://www.redfin.com/IL/Chicago/6821-S-Harper-Ave-60637/home/148049730,MRED as Distributed by MLS Grid,11959134,N,Y,41.770838000000000,-87.587575000000000,423,2020,2478,WADSWORTH,HYDE PARK,40,3
MLS Listing,,Multi-Family (2-4 Unit),6645 S Minerva Ave,Chicago,IL,60637,340000,6.0,4.0,CHI - Woodlawn,,3484,1908,15,,0.00,Active,,,https://www.redfin.com/IL/Chicago/6645-S-Minerva-Ave-60637/home/13926784,MRED as Distributed by MLS Grid,11946988,N,Y,41.773749600000000,-87.597004200000000,150,2257,1389,WADSWORTH,HYDE PARK,26,1
MLS Listing,,Multi-Family (2-4 Unit),6627 S Maryland Ave,Chicago,IL,60637,350000,6.0,4.5,CHI - Woodlawn,,3125,1890,37,,0.00,Active,,,https://www.redfin.com/IL/Chicago/6627-S-Maryland-Ave-60637/home/13928199,MRED as Distributed by MLS Grid,11953038,N,Y,41.774168500000000,-87.604269600000000,581,2122,933,WADSWORTH,HYDE PARK,44,4
MLS Listing,,Condo/Co-op,6504 S Minerva Ave Unit U3N,Chicago,IL,60637,262000,3.0,2.0,CHI - Woodlawn,1350.0,0,0,139,194.0,370.00,Active,,,https://www.redfin.com/IL/Chicago/6504-S-Minerva-Ave-60637/unit-U3N/home/183996575,MRED as Distributed by MLS Grid,11888460,N,Y,41.776570800000000,-87.597648300000000,259,1833,1070,WADSWORTH,HYDE PARK,43,2
MLS Listing,,Multi-Family (2-4 Unit),6620 S Drexel Ave,Chicago,IL,60637,300000,8.0,2.0,CHI - Woodlawn,,0,1890,178,,0.00,Active,,,https://www.redfin.com/IL/Chicago/6620-S-Drexel-Ave-60637/home/12584558,MRED as Distributed by MLS Grid,11836012,N,Y,41.774327800000000,-87.603731700000000,524,2094,923,WADSWORTH,HYDE PARK,43,4
MLS Listing,,Vacant Land,6601 S Minerva Ave,Chicago,IL,60637,320000,,,CHI - Woodlawn,,7405,0,489,,0.00,Active,,,https://www.redfin.com/IL/Chicago/6601-S-Minerva-Ave-60637/home/25709821,MRED as Distributed by MLS Grid,11643548,N,Y,41.774888000000000,-87.596946000000000,33,2096,1280,WADSWORTH,HYDE PARK,37,1
MLS Listing,,Vacant Land,1510 E 67th St,Chicago,IL,60637,499000,,,CHI - Woodlawn,,12196,0,457,,0.00,Active,,,https://www.redfin.com/IL/Chicago/1510-E-67th-St-60637/home/147915880,MRED as Distributed by MLS Grid,11609888,N,Y,41.773584000000000,-87.588155000000000,232,1951,2211,WADSWORTH,HYDE PARK,35,2
MLS Listing,,Multi-Family (2-4 Unit),6609 S Maryland Ave,Chicago,IL,60637,399997,5.0,2.5,CHI - Woodlawn,,3049,1898,31,,0.00,Active,,,https://www.redfin.com/IL/Chicago/6609-S-Maryland-Ave-60637/home/187192717,MRED as Distributed by MLS Grid,11955522,N,Y,41.774634900000000,-87.604270400000000,591,2053,865,WADSWORTH,HYDE PARK,47,4
MLS Listing,,Multi-Family (2-4 Unit),7049 S Dante Ave,Chicago,IL,60637,430000,9.0,6.0,CHI - South Shore,,0,2006,13,,0.00,Active,,,https://www.redfin.com/IL/Chicago/7049-S-Dante-Ave-60637/home/13926265,MRED as Distributed by MLS Grid,11962052,N,Y,41.766357300000000,-87.589221500000000,168,1409,2786,WADSWORTH,HYDE PARK,26,5
MLS Listing,,Multi-Family (2-4 Unit),6636 S Ingleside Ave,Chicago,IL,60637,420000,5.0,4.5,CHI - Woodlawn,,3920,1924,95,,0.00,Active,,,https://www.redfin.com/IL/Chicago/6636-S-Ingleside-Ave-60637/home/13928498,MRED as Distributed by MLS Grid,11922024,N,Y,41.773819300000000,-87.602417800000000,373,2165,1041,WADSWORTH,HYDE PARK,35,2
MLS Listing,,Multi-Family (2-4 Unit),6541 S Ellis Ave,Chicago,IL,60619,449900,5.0,3.0,CHI - Woodlawn,,3125,1893,1,,0.00,Active,,,https://www.redfin.com/IL/Chicago/6541-S-Ellis-Ave-60637/home/13928482,MRED as Distributed by MLS Grid,11973311,N,Y,41.775608000000000,-87.600643100000000,316,1908,910,WADSWORTH,HYDE PARK,48,5
MLS Listing,,Single Family Residential,6417 S Drexel Ave,Chicago,IL,60637,779500,5.0,3.5,CHI - Woodlawn,3600.0,3125,2023,12,217.0,0.00,Active,,,https://www.redfin.com/IL/Chicago/6417-S-Drexel-Ave-60637/home/22909878,MRED as Distributed by MLS Grid,11965983,N,Y,41.778067000000000,-87.602475000000000,166,1531,503,WADSWORTH,HYDE PARK,55,5
MLS Listing,,Single Family Residential,6642 S Drexel Ave,Chicago,IL,60637,685000,5.0,4.5,CHI - Woodlawn,4000.0,3136,1899,3,171.0,0.00,Active,,,https://www.redfin.com/IL/Chicago/6642-S-Drexel-Ave-60637/home/13928141,MRED as Distributed by MLS Grid,11972453.0,N,Y,41.773696800000000,-87.603625300000000,508,2187,1018,WADSWORTH,HYDE PARK,39,2
MLS Listing,,Single Family Residential,6626 S Ingleside Ave,Chicago,IL,60637,789900,5.0,3.5,CHI - Woodlawn,3000.0,6168,2024,3,263.0,0.00,Active,,,https://www.redfin.com/IL/Chicago/6626-S-Ingleside-Ave-60637/home/21871817,MRED as Distributed by MLS Grid,11970392,N,Y,41.774127400000000,-87.602491400000000,384,2119,996,WADSWORTH,HYDE PARK,39,2
MLS Listing,,Multi-Family (2-4 Unit),6354 S Greenwood Ave,Chicago,IL,60637,710000,9.0,7.0,CHI - Woodlawn,,3920,1900,102,,0.00,Active,,,https://www.redfin.com/IL/Chicago/6354-S-Greenwood-Ave-60637/home/52635356,MRED as Distributed by MLS Grid,11916893.0,N,Y,41.778847400000000,-87.599524200000000,121,1451,738,WADSWORTH,HYDE PARK,50,7
MLS Listing,,Multi-Family (5+ Unit),1401 E 69th Pl,Chicago,IL,60637,740999,16.0,13.0,CHI - South Shore,,0,1910,313,,0.00,Active,,,https://www.redfin.com/IL/Chicago/1401-E-69th-Pl-60637/home/13926881,MRED as Distributed by MLS Grid,11746656,N,Y,41.768581600000000,-87.590665500000000,184,1776,2434,WADSWORTH,HYDE PARK,38,2
MLS Listing,,Single Family Residential,6442 S Ingleside Ave,Chicago,IL,60637,685000,5.0,3.5,CHI - Woodlawn,4400.0,3125,1905,117,156.0,0.00,Active,,,https://www.redfin.com/IL/Chicago/6442-S-Ingleside-Ave-60637/home/13928207,MRED as Distributed by MLS Grid,11904858.0,N,Y,41.777354800000000,-87.601926500000000,132,1638,621,WADSWORTH,HYDE PARK,49,5
MLS Listing,,Multi-Family (5+ Unit),6605 S Kimbark Ave,Chicago,IL,60637,1250000,16.0,16.0,CHI - Woodlawn,,4000,1900,47,,0.00,Active,,,https://www.redfin.com/IL/Chicago/6605-S-Kimbark-Ave-60637/home/12570870,MRED as Distributed by MLS Grid,11949413,N,Y,41.774782700000000,-87.594327800000000,201,2213,1525,WADSWORTH,HYDE PARK,40,2
MLS Listing,,Multi-Family (5+ Unit),6506 S Ellis Ave,Chicago,IL,60637,990000,16.0,10.0,CHI - Woodlawn,,6250,1930,93,,0.00,Active,,,https://www.redfin.com/IL/Chicago/6506-S-Ellis-Ave-60637/home/183874107,MRED as Distributed by MLS Grid,11923328,N,Y,41.776553100000000,-87.601237700000000,201,1762,760,WADSWORTH,HYDE PARK,50,5
MLS Listing,,Single Family Residential,10439 S Eggleston Ave,Chicago,IL,60628,135000,4.0,2.0,CHI - Roseland,1452.0,3300,1926,14,93.0,0.00,Active,,,https://www.redfin.com/IL/Chicago/10439-S-Eggleston-Ave-60628/home/13079332,MRED as Distributed by MLS Grid,11964965,N,Y,41.704050500000000,-87.634038700000000,229,2026,2935,FERNWOOD,JULIAN HS,15,1
MLS Listing,,Single Family Residential,530 W 104th St,Chicago,IL,60628,149900,5.0,1.5,CHI - Roseland,1356.0,3125,1900,31,111.0,0.00,Active,,,https://www.redfin.com/IL/Chicago/530-W-104th-St-60628/home/13078510,MRED as Distributed by MLS Grid,11955725,N,Y,41.705388700000000,-87.636771400000000,139,2356,2883,FERNWOOD,JULIAN HS,26,3
MLS Listing,,Vacant Land,10342 S Lowe Ave,Chicago,IL,60628,28900,,,CHI - Roseland,,5397,0,935,,0.00,Active,,,https://www.redfin.com/IL/Chicago/10342-S-Lowe-Ave-60628/home/167790020,MRED as Distributed by MLS Grid,6804281,N,Y,41.705739600000000,-87.639493600000000,90,2577,2995,FERNWOOD,JULIAN HS,28,2
MLS Listing,,Multi-Family (2-4 Unit),718 W 103rd St,Chicago,IL,60628,75000,4.0,2.0,CHI - Washington Heights,,0,1911,3,,0.00,Active,,,https://www.redfin.com/IL/Chicago/718-W-103rd-St-60628/home/13090639,MRED as Distributed by MLS Grid,11972169.0,N,Y,41.707196500000000,-87.641196000000000,325,2865,2935,FERNWOOD,JULIAN HS,29,2
MLS Listing,,Multi-Family (2-4 Unit),10100 S Wallace Ave,Chicago,IL,60628,64900,4.0,2.0,CHI - Washington Heights,,4375,1902,39,,0.00,Active,,,https://www.redfin.com/IL/Chicago/10100-S-Wallace-St-60628/home/189025399,MRED as Distributed by MLS Grid,11952056.0,N,Y,41.710508200000000,-87.638360500000000,528,3102,2354,FERNWOOD,JULIAN HS,27,2
MLS Listing,,Single Family Residential,445 W 100th Pl,Chicago,IL,60628,220000,3.0,2.5,CHI - Washington Heights,1100.0,0,1947,171,200.0,0.00,Active,,,https://www.redfin.com/IL/Chicago/445-W-100th-Pl-60628/home/13090956,MRED as Distributed by MLS Grid,11841313,N,Y,41.711383100000000,-87.635507700000000,207,3084,2052,FERNWOOD,JULIAN HS,19,1
MLS Listing,,Single Family Residential,10141 S Wallace St,Chicago,IL,60628,159999,4.0,2.0,CHI - Washington Heights,1800.0,6250,0,391,89.0,0.00,Active,,,https://www.redfin.com/IL/Chicago/10141-S-Wallace-St-60628/home/13090459,MRED as Distributed by MLS Grid,11697798,N,Y,41.709407500000000,-87.637782200000000,467,2927,2440,FERNWOOD,JULIAN HS,26,2
MLS Listing,,Single Family Residential,10235 S Wallace St,Chicago,IL,60628,183000,4.0,1.5,CHI - Washington Heights,1000.0,6250,0,59,183.0,0.00,Active,,,https://www.redfin.com/IL/Chicago/10235-S-Wallace-St-60628/home/13090442,MRED as Distributed by MLS Grid,11939270,N,Y,41.707733500000000,-87.637705100000000,385,2707,2638,FERNWOOD,JULIAN HS,26,2
MLS Listing,,Single Family Residential,10224 S Union Ave,Chicago,IL,60628,230000,3.0,1.0,CHI - Washington Heights,1446.0,0,1946,3,159.0,0.00,Active,,,https://www.redfin.com/IL/Chicago/10224-S-Union-Ave-60628/home/13091329,MRED as Distributed by MLS Grid,11968111,N,Y,41.707941200000000,-87.640721600000000,422,2920,2816,FERNWOOD,JULIAN HS,28,2
MLS Listing,,Single Family Residential,10131 S Lowe Ave,Chicago,IL,60628,249000,3.0,2.0,CHI - Washington Heights,1200.0,3125,1970,10,208.0,0.00,Active,,,https://www.redfin.com/IL/Chicago/10131-S-Lowe-Ave-60628/home/189040373,MRED as Distributed by MLS Grid,11967434,N,Y,41.709680000000000,-87.638919400000000,593,3025,2488,FERNWOOD,JULIAN HS,26,2
MLS Listing,,Single Family Residential,10435 S Eggleston Ave,Chicago,IL,60628,254900,5.0,2.5,CHI - Roseland,2100.0,3300,1925,20,121.0,0.00,Active,,,https://www.redfin.com/IL/Chicago/10435-S-Eggleston-Ave-60628/home/13079333,MRED as Distributed by MLS Grid,11961629,N,Y,41.704146600000000,-87.634035400000000,217,2039,2922,FERNWOOD,JULIAN HS,16,1
MLS Listing,,Single Family Residential,521 W 103rd Pl,Chicago,IL,60628,299999,6.0,3.0,CHI - Roseland,2730.0,4688,1925,3,110.0,0.00,Active,,,https://www.redfin.com/IL/Chicago/521-W-103rd-Pl-60628/home/13079009,MRED as Distributed by MLS Grid,11971804,N,Y,41.705879500000000,-87.636432900000000,204,2397,2800,FERNWOOD,JULIAN HS,26,3
MLS Listing,,Single Family Residential,10221 S Union Ave,Chicago,IL,60628,235000,4.0,1.5,CHI - Washington Heights,973.0,3123,1983,88,242.0,0.00,Active,,,https://www.redfin.com/IL/Chicago/10221-S-Union-Ave-60628/home/13091557,MRED as Distributed by MLS Grid,11927324,N,Y,41.708052400000000,-87.640177900000000,436,2898,2764,FERNWOOD,JULIAN HS,27,2
MLS Listing,,Single Family Residential,10004 S Eggleston Ave,Chicago,IL,60628,269900,3.0,2.0,,1000.0,0,1973,32,270.0,0.00,Active,,,https://www.redfin.com/IL/Chicago/Undisclosed-address-60628/home/13091474,MRED as Distributed by MLS Grid,11860971,N,Y,41.712286500000000,-87.634003900000000,38,3152,1845,FERNWOOD,JULIAN HS,10,1
MLS Listing,,Single Family Residential,9936 S Lowe Ave,Chicago,IL,60628,279900,4.0,3.0,CHI - Washington Heights,2265.0,3125,0,54,124.0,0.00,Active,,,https://www.redfin.com/IL/Chicago/9936-S-Lowe-Ave-60628/home/187432073,MRED as Distributed by MLS Grid,11945569,N,Y,41.713117900000000,-87.639627000000000,355,3511,2185,FERNWOOD,JULIAN HS,17,0
MLS Listing,,Single Family Residential,10135 S Union Ave,Chicago,IL,60628,262000,4.0,2.0,,1600.0,0,1923,6,164.0,0.00,Active,,,https://www.redfin.com/IL/Chicago/Undisclosed-address-60628/home/13090536,MRED as Distributed by MLS Grid,11966098,N,Y,41.709548000000000,-87.640280400000000,659,3089,2604,FERNWOOD,JULIAN HS,29,2
MLS Listing,,Single Family Residential,10320 S Wallace St,Chicago,IL,60628,384000,5.0,3.0,CHI - Roseland,2500.0,3125,1921,65,154.0,0.00,Active,,,https://www.redfin.com/IL/Chicago/10320-S-Wallace-St-60628/home/13079578,MRED as Distributed by MLS Grid,11939793.0,N,Y,41.706317000000000,-87.638232100000000,173,2562,2846,FERNWOOD,JULIAN HS,26,2
MLS Listing,,Single Family Residential,8921 S Throop St,Chicago,IL,60620,175000,4.0,2.0,CHI - Washington Heights,1772.0,6000,1922,144,99.0,0.00,Active,,,https://www.redfin.com/IL/Chicago/8921-S-Throop-St-60620/home/13105233,MRED as Distributed by MLS Grid,11883873,N,Y,41.731619300000000,-87.655396300000000,435,6776,3457,FORT DEARB,HARLAN HS,18,0
MLS Listing,,Single Family Residential,8924 S Elizabeth St,Chicago,IL,60620,237000,4.0,1.0,CHI - Washington Heights,1600.0,3702,1921,136,148.0,0.00,Active,,,https://www.redfin.com/IL/Chicago/8924-S-Elizabeth-St-60620/home/13105548,MRED as Distributed by MLS Grid,11886248,N,Y,41.731503000000000,-87.654683100000000,416,6721,3382,FORT DEARB,HARLAN HS,18,0
MLS Listing,,Single Family Residential,9040 S Loomis St,Chicago,IL,60620,341800,4.0,2.5,CHI - Washington Heights,2407.0,6651,1910,85,142.0,0.00,Active,,,https://www.redfin.com/IL/Chicago/9040-S-Loomis-St-60620/home/13105508,MRED as Distributed by MLS Grid,11928931,N,Y,41.729151000000000,-87.658378000000000,327,6639,3857,FORT DEARB,HARLAN HS,7,1
MLS Listing,,Single Family Residential,8841 S Bishop St,Chicago,IL,60620,485000,4.0,3.5,CHI - Auburn Gresham,2000.0,6250,2021,985,243.0,0.00,Active,,,https://www.redfin.com/IL/Chicago/8841-S-Bishop-St-60620/home/13105568,MRED as Distributed by MLS Grid,11100258,N,Y,41.732795000000000,-87.659085000000000,692,6575,3841,FORT DEARB,HARLAN HS,21,0
MLS Listing,,Single Family Residential,8938 S Bishop St,Chicago,IL,60620,354900,5.0,3.0,CHI - Washington Heights,2600.0,3720,1924,25,137.0,0.00,Active,,,https://www.redfin.com/IL/Chicago/8938-S-Bishop-St-60620/home/13104171,MRED as Distributed by MLS Grid,11958593.0,N,Y,41.731016500000000,-87.659582600000000,570,6765,3931,FORT DEARB,HARLAN HS,18,1
MLS Listing,,Single Family Residential,9300 S Justine St,Chicago,IL,60620,110000,2.0,1.0,CHI - Washington Heights,1204.0,4573,1950,17,91.0,0.00,Active,,,https://www.redfin.com/IL/Chicago/9300-S-Justine-St-60620/home/13102972,MRED as Distributed by MLS Grid,11964097,N,Y,41.724742900000000,-87.661860200000000,542,6347,4184,FORT DEARB,CORLISS HS,27,4
MLS Listing,,Single Family Residential,9256 S Loomis St,Chicago,IL,60620,89900,4.0,3.5,CHI - Washington Heights,1650.0,0,1928,10,54.0,0.00,Active,,,https://www.redfin.com/IL/Chicago/9256-S-Loomis-St-60620/home/13103865,MRED as Distributed by MLS Grid,11967824.0,N,Y,41.725101000000000,-87.658121400000000,396,6130,3774,FORT DEARB,CORLISS HS,24,1
MLS Listing,,Single Family Residential,9254 S Justine St,Chicago,IL,60620,210000,3.0,1.5,CHI - Washington Heights,,0,1953,197,,0.00,Active,,,https://www.redfin.com/IL/Chicago/9254-S-Justine-St-60620/home/13102992,MRED as Distributed by MLS Grid,11839521,N,Y,41.725118000000000,-87.661864600000000,524,6391,4189,FORT DEARB,CORLISS HS,27,3
MLS Listing,,Single Family Residential,9108 S Justine St,Chicago,IL,60620,240000,3.0,1.5,CHI - Washington Heights,1600.0,7500,1956,4,150.0,0.00,Active,,,https://www.redfin.com/IL/Chicago/9108-S-Justine-St-60620/home/13105179,MRED as Distributed by MLS Grid,11970830,N,Y,41.728214600000000,-87.661946900000000,579,6757,4268,FORT DEARB,CORLISS HS,8,1
MLS Listing,,Vacant Land,9132 S Ashland Ave,Chicago,IL,60620,325000,,,CHI - Washington Heights,,2613,0,86,,0.00,Active,,,https://www.redfin.com/IL/Chicago/9132-S-Ashland-Ave-60620/home/188540643,MRED as Distributed by MLS Grid,11924503,N,Y,41.727499500000000,-87.663160300000000,415,6757,4381,FORT DEARB,CORLISS HS,16,1
MLS Listing,,Single Family Residential,1619 W 93rd St,Chicago,IL,60620,349900,4.0,3.0,CHI - Washington Heights,2436.0,3720,1931,90,144.0,0.00,Active,,,https://www.redfin.com/IL/Chicago/1619-W-93rd-St-60620/home/13100145,MRED as Distributed by MLS Grid,11925524,N,Y,41.724631600000000,-87.663565100000000,377,6459,4371,FORT DEARB,CORLISS HS,26,3
MLS Listing,,Single Family Residential,9311 S Justine St,Chicago,IL,60620,299900,3.0,2.5,CHI - Washington Heights,1650.0,4138,1948,5,182.0,0.00,Active,February-4-2024 12:00 PM,February-4-2024 02:00 PM,https://www.redfin.com/IL/Chicago/9311-S-Justine-St-60620/home/13102379,MRED as Distributed by MLS Grid,11969908,N,Y,41.724470100000000,-87.661383200000000,606,6282,4127,FORT DEARB,CORLISS HS,27,3
MLS Listing,,Vacant Land,9230 S Ashland Ave,Chicago,IL,60620,350000,,,CHI - Washington Heights,,21344,0,305,,0.00,Active,,,https://www.redfin.com/IL/Chicago/9230-S-Ashland-Ave-60620/home/142547186,MRED as Distributed by MLS Grid,11752839,N,Y,41.725884000000000,-87.663177000000000,361,6572,4347,FORT DEARB,CORLISS HS,25,3
MLS Listing,,Multi-Family (5+ Unit),9307 S Laflin St,Chicago,IL,60620,599900,12.0,9.0,CHI - Washington Heights,16000.0,6250,1926,67,37.0,0.00,Active,,,https://www.redfin.com/IL/Chicago/9307-S-Laflin-St-60620/home/13104062,MRED as Distributed by MLS Grid,11937281,N,Y,41.724569800000000,-87.660137500000000,623,6205,3990,FORT DEARB,CORLISS HS,27,2
MLS Listing,,Multi-Family (5+ Unit),9431 S Bishop St,Chicago,IL,60620,550000,10.0,,CHI - Washington Heights,4308.0,6930,1951,395,128.0,0.00,Active,,,https://www.redfin.com/IL/Chicago/9431-S-Bishop-St-60620/home/13102359,MRED as Distributed by MLS Grid,11687036,N,Y,41.722144300000000,-87.658725000000000,791,5826,3820,FORT DEARB,CORLISS HS,36,2
MLS Listing,,Townhouse,5157 W 63rd Pl,Chicago,IL,60638,230000,2.0,2.0,CHI - Clearing,889.0,0,0,59,259.0,0.00,Active,,,https://www.redfin.com/IL/Chicago/5157-W-63rd-Pl-60638/home/13994228,MRED as Distributed by MLS Grid,11943631,N,Y,41.777242000000000,-87.751162100000000,14,6651,2029,GRIMES,HUBBARD HS,33,1
MLS Listing,,Single Family Residential,6431 S Lamon Ave,Chicago,IL,60638,300000,5.0,2.0,CHI - Clearing,1028.0,3702,1959,26,292.0,0.00,Active,,,https://www.redfin.com/IL/Chicago/6431-S-Lamon-Ave-60638/home/13994750,MRED as Distributed by MLS Grid,11958684,N,Y,41.775604800000000,-87.744405400000000,591,5868,1793,GRIMES,HUBBARD HS,39,2
MLS Listing,,Vacant Land,8748 S Ashland Ave,Chicago,IL,60620,55000,,,CHI - Auburn Gresham,,0,0,3,,0.00,Active,,,https://www.redfin.com/IL/Chicago/8748-S-Ashland-Ave-60620/home/148721222,MRED as Distributed by MLS Grid,11972181,N,Y,41.734449400000000,-87.663321200000000,169,6110,4296,FOSTER PAR,HARLAN HS,22,3
MLS Listing,,Single Family Residential,8861 S Beverly Ave,Chicago,IL,60620,320000,5.0,2.0,CHI - Auburn Gresham,2081.0,4356,1962,33,154.0,0.00,Active,,,https://www.redfin.com/IL/Chicago/8861-S-Beverly-Ave-60620/home/13102631,MRED as Distributed by MLS Grid,11954258,N,Y,41.731944800000000,-87.669272800000000,542,6123,4982,FOSTER PAR,HARLAN HS,22,3
MLS Listing,,Single Family Residential,8833 S Winchester Ave,Chicago,IL,60620,280000,3.0,1.5,CHI - Auburn Gresham,1450.0,10890,1959,32,193.0,0.00,Active,,,https://www.redfin.com/IL/Chicago/8833-S-Winchester-Ave-60620/home/13102081,MRED as Distributed by MLS Grid,11943730,N,Y,41.733027200000000,-87.668737200000000,500,6003,4909,FOSTER PAR,HARLAN HS,23,3
MLS Listing,,Single Family Residential,1919 W 85th St,Chicago,IL,60620,229500,4.0,3.0,CHI - Auburn Gresham,1872.0,4625,1954,4,123.0,0.00,Active,,,https://www.redfin.com/IL/Chicago/1919-W-85th-St-60620/home/13908954,MRED as Distributed by MLS Grid,11969605,N,Y,41.739101300000000,-87.671319000000000,329,5065,5214,FOSTER PAR,HIRSCH HS,24,2
MLS Listing,,Single Family Residential,8642 S Marshfield Ave,Chicago,IL,60620,349555,5.0,3.5,CHI - Auburn Gresham,3000.0,3123,1923,32,117.0,0.00,Active,,,https://www.redfin.com/IL/Chicago/8642-S-Marshfield-Ave-60620/home/13907608,MRED as Distributed by MLS Grid,11954955,N,Y,41.736314800000000,-87.664566900000000,96,5801,4435,FOSTER PAR,HIRSCH HS,26,2
MLS Listing,,Single Family Residential,8507 S Damen Ave,Chicago,IL,60620,249900,4.0,1.5,CHI - Auburn Gresham,1471.0,3750,1951,38,170.0,0.00,Active,,,https://www.redfin.com/IL/Chicago/8507-S-Damen-Ave-60620/home/13907847,MRED as Distributed by MLS Grid,11952415,N,Y,41.739008100000000,-87.672592100000000,408,5013,5353,FOSTER PAR,HIRSCH HS,22,2
MLS Listing,,Single Family Residential,8359 S Marshfield Ave,Chicago,IL,60620,255000,4.0,2.0,CHI - Auburn Gresham,1904.0,4675,1952,79,134.0,0.00,Active,,,https://www.redfin.com/IL/Chicago/8359-S-Marshfield-Ave-60620/home/13907782,MRED as Distributed by MLS Grid,11933052,N,Y,41.741359400000000,-87.664143100000000,290,5209,4475,FOSTER PAR,HIRSCH HS,21,2
MLS Listing,,Single Family Residential,8541 S Marshfield Ave,Chicago,IL,60620,360000,5.0,3.0,Englewood Heights,2200.0,3136,1921,20,164.0,0.00,Active,,,https://www.redfin.com/IL/Chicago/8541-S-Marshfield-Ave-60620/home/13907713,MRED as Distributed by MLS Grid,11959339.0,N,Y,41.738226000000000,-87.663994000000000,340,5598,4389,FOSTER PAR,HIRSCH HS,27,2
MLS Listing,,Multi-Family (5+ Unit),1712 W 87th St,Chicago,IL,60620,1100000,15.0,11.0,CHI - Auburn Gresham,,9375,1967,395,,0.00,Active,,,https://www.redfin.com/IL/Chicago/1712-W-87th-St-60620/home/13906973,MRED as Distributed by MLS Grid,11387782,N,Y,41.736070600000000,-87.666120400000000,99,5742,4606,FOSTER PAR,HIRSCH HS,26,3
MLS Listing,,Condo/Co-op,1912 S Wells St #1,Chicago,IL,60616,328000,3.0,2.0,CHI - Armour Square,950.0,0,2003,15,345.0,176.00,Active,,,https://www.redfin.com/IL/Chicago/1912-S-Wells-St-60616/unit-1/home/12694073,MRED as Distributed by MLS Grid,11964762,N,Y,41.856315100000000,-87.633406900000000,112,1961,539,HAINES,PHILLIPS H,40,54
MLS Listing,,Condo/Co-op,1828 S Wentworth Ave Unit 1E,Chicago,IL,60616,289800,3.0,2.0,CHI - Armour Square,800.0,0,2003,143,362.0,0.00,Active,,,https://www.redfin.com/IL/Chicago/1828-S-Wentworth-Ave-60616/unit-1E/home/39569759,MRED as Distributed by MLS Grid,11884204,N,Y,41.856944600000000,-87.632207500000000,133,1944,576,HAINES,PHILLIPS H,43,56
MLS Listing,,Condo/Co-op,231 W 18th St Unit 5B,Chicago,IL,60616,305000,3.0,2.0,CHI - Armour Square,900.0,0,2009,209,339.0,200.00,Active,,,https://www.redfin.com/IL/Chicago/231-W-18th-St-60616/unit-5B/home/175660781,MRED as Distributed by MLS Grid,11827742,N,Y,41.857476000000000,-87.633248400000000,53,2079,687,HAINES,PHILLIPS H,35,53
MLS Listing,,Condo/Co-op,239 W 18th St Unit 2D,Chicago,IL,60616,295000,3.0,2.0,CHI - Armour Square,1200.0,0,2009,478,246.0,189.00,Active,,,https://www.redfin.com/IL/Chicago/239-W-18th-St-60616/unit-2D/home/40381656,MRED as Distributed by MLS Grid,11652701,N,Y,41.857419000000000,-87.633476500000000,51,2089,689,HAINES,PHILLIPS H,34,51
MLS Listing,,Townhouse,2156 S China Pl Unit D,Chicago,IL,60616,495000,3.0,2.0,Armour Square,1900.0,0,1997,147,261.0,23.00,Active,,,https://www.redfin.com/IL/Chicago/2156-S-China-Pl-60616/unit-D/home/179583512,MRED as Distributed by MLS Grid,11881749,N,Y,41.854322700000000,-87.635019800000000,167,1898,481,HAINES,PHILLIPS H,44,55
MLS Listing,,Townhouse,1821 S Melody Ct,Chicago,IL,60616,479000,4.0,2.5,CHI - Armour Square,1800.0,1200,2007,365,266.0,85.00,Active,,,https://www.redfin.com/IL/Chicago/1821-S-Melody-Ct-60616/home/22992615,MRED as Distributed by MLS Grid,11713158,N,Y,41.857057400000000,-87.633735200000000,42,2067,653,HAINES,PHILLIPS H,34,52
MLS Listing,,Townhouse,351 W 23rd Pl,Chicago,IL,60616,388000,3.0,2.0,CHI - Armour Square,1140.0,1385,1968,11,340.0,0.00,Active,,,https://www.redfin.com/IL/Chicago/351-W-23rd-Pl-60616/home/14082735,MRED as Distributed by MLS Grid,11967017.0,N,Y,41.849791200000000,-87.636548600000000,313,1756,804,HAINES,PHILLIPS H,45,50
MLS Listing,,Townhouse,1823 S Melody Ct,Chicago,IL,60616,469000,4.0,3.5,CHI - Armour Square,2400.0,1200,2008,32,195.0,75.00,Active,,,https://www.redfin.com/IL/Chicago/1823-S-Melody-Ct-60616/home/18917647,MRED as Distributed by MLS Grid,11955516,N,Y,41.857020100000000,-87.633752100000000,42,2064,649,HAINES,PHILLIPS H,35,52
MLS Listing,,Single Family Residential,346 W 24th St,Chicago,IL,60616,658888,5.0,2.0,CHI - Armour Square,2400.0,3375,1969,154,275.0,0.00,Active,,,https://www.redfin.com/IL/Chicago/346-W-24th-St-60616/home/14082615,MRED as Distributed by MLS Grid,11876247.0,N,Y,41.849325700000000,-87.636548600000000,262,1739,850,HAINES,PHILLIPS H,44,45
MLS Listing,,Multi-Family (2-4 Unit),329 W 24th St,Chicago,IL,60616,559000,7.0,3.0,CHI - Armour Square,,3049,1885,337,,0.00,Active,,,https://www.redfin.com/IL/Chicago/329-W-24th-St-60616/home/14083027,MRED as Distributed by MLS Grid,11730813,N,Y,41.848911500000000,-87.635883500000000,166,1654,843,HAINES,PHILLIPS H,45,43
MLS Listing,,Condo/Co-op,814 E 38th Pl #1,Chicago,IL,60653,284900,3.0,2.5,CHI - Oakland,1709.0,0,2009,123,167.0,150.00,Active,,,https://www.redfin.com/IL/Chicago/814-E-38th-Pl-60653/unit-1/home/26822522,MRED as Distributed by MLS Grid,11895417,N,Y,41.825560700000000,-87.606919400000000,237,3503,1713,FULLER,PHILLIPS H,26,0
MLS Listing,,Single Family Residential,3918 S Langley Ave,Chicago,IL,60653,420000,6.0,3.0,CHI - Grand Boulevard,3700.0,1951,1886,348,114.0,0.00,Active,,,https://www.redfin.com/IL/Chicago/3918-S-Langley-Ave-60653/home/185741141,MRED as Distributed by MLS Grid,11723227,N,Y,41.823302900000000,-87.610089300000000,94,3110,1285,FULLER,PHILLIPS H,41,1
MLS Listing,,Single Family Residential,3958 S Drexel Blvd,Chicago,IL,60653,1095000,5.0,4.5,CHI - Oakland,4000.0,1799,2019,2,274.0,0.00,Active,,,https://www.redfin.com/IL/Chicago/3958-S-Drexel-Blvd-60653/home/177706904,MRED as Distributed by MLS Grid,11972693,N,Y,41.822323800000000,-87.606618900000000,78,3041,1636,FULLER,PHILLIPS H,35,3
MLS Listing,,Multi-Family (5+ Unit),544 E Oakwood Blvd,Chicago,IL,60653,3995000,42.0,22.0,CHI - Grand Boulevard,,12070,1908,116,,0.00,Active,,,https://www.redfin.com/IL/Chicago/544-E-Oakwood-Blvd-60653/home/13960926,MRED as Distributed by MLS Grid,11906677,N,Y,41.822930400000000,-87.612430200000000,356,3032,1019,FULLER,PHILLIPS H,48,2
MLS Listing,,Vacant Land,4141 S Langley Ave,Chicago,IL,60653,189900,,,CHI - Grand Boulevard,,2926,0,115,,0.00,Active,,,https://www.redfin.com/IL/Chicago/4141-S-Langley-Ave-60653/home/148048187,MRED as Distributed by MLS Grid,11907223,N,Y,41.819146000000000,-87.608982000000000,101,2518,1189,FULLER,PHILLIPS H,49,8
MLS Listing,,Condo/Co-op,754 E 43rd St #3,Chicago,IL,60653,122500,2.0,2.0,CHI - Grand Boulevard,,0,1885,241,,473.00,Active,,,https://www.redfin.com/IL/Chicago/754-E-43rd-St-60653/unit-3/home/12666455,MRED as Distributed by MLS Grid,11803205,N,Y,41.816913500000000,-87.607071500000000,309,2253,1333,FULLER,PHILLIPS H,34,8
MLS Listing,,Condo/Co-op,461 E Bowen Ave #3,Chicago,IL,60653,329900,3.0,2.0,CHI - Grand Boulevard,2054.0,0,2005,62,161.0,190.00,Active,,,https://www.redfin.com/IL/Chicago/461-E-Bowen-Ave-60653/unit-3/home/18941211,MRED as Distributed by MLS Grid,11941439,N,Y,41.819140800000000,-87.614282800000000,89,2464,663,FULLER,PHILLIPS H,52,5
MLS Listing,,Condo/Co-op,633 E Bowen Ave Unit 3W,Chicago,IL,60653,305000,3.0,2.0,CHI - Grand Boulevard,,0,2005,1,,426.00,Active,,,https://www.redfin.com/IL/Chicago/633-E-Bowen-Ave-60653/unit-3W/home/12606907,MRED as Distributed by MLS Grid,11970649,N,Y,41.819213600000000,-87.610386600000000,106,2501,1047,FULLER,PHILLIPS H,49,8
MLS Listing,,Condo/Co-op,450 E Bowen Ave Unit 2W,Chicago,IL,60653,280000,3.0,2.0,CHI - Grand Boulevard,1400.0,0,2005,8,200.0,200.00,Active,,,https://www.redfin.com/IL/Chicago/450-E-Bowen-Ave-60653/unit-2W/home/26823633,MRED as Distributed by MLS Grid,11933461,N,Y,41.819618700000000,-87.614619600000000,166,2536,681,FULLER,PHILLIPS H,55,3
MLS Listing,,Townhouse,450 E Bowen Ave Unit 1W,Chicago,IL,60653,334900,4.0,3.0,CHI - Grand Boulevard,2600.0,0,2005,230,129.0,270.00,Active,,,https://www.redfin.com/IL/Chicago/450-E-Bowen-Ave-60653/unit-1W/home/26823652,MRED as Distributed by MLS Grid,11694463,N,Y,41.819618700000000,-87.614619600000000,166,2536,681,FULLER,PHILLIPS H,55,3
MLS Listing,,Townhouse,4108 S Maryland Ave,Chicago,IL,60653,369000,3.0,2.5,Jazz on the Boulevard,2008.0,0,2008,122,184.0,163.00,Active,,,https://www.redfin.com/IL/Chicago/4108-Maryland-Ave-60653/home/18949559,MRED as Distributed by MLS Grid,11901651.0,N,Y,41.820070500000000,-87.605742900000000,229,2747,1575,FULLER,PHILLIPS H,40,8
MLS Listing,,Condo/Co-op,4118 S Vincennes Ave #2,Chicago,IL,60653,394900,3.0,2.0,CHI - Grand Boulevard,1350.0,0,2019,97,293.0,177.00,Active,,,https://www.redfin.com/IL/Chicago/4118-S-Vincennes-Ave-60653/unit-2/home/178523489,MRED as Distributed by MLS Grid,11920265,N,Y,41.819710300000000,-87.613759000000000,139,2548,762,FULLER,PHILLIPS H,54,5
MLS Listing,,Multi-Family (2-4 Unit),4236 S Champlain Ave,Chicago,IL,60653,729000,9.0,4.0,CHI - Grand Boulevard,,3920,1895,30,,0.00,Active,,,https://www.redfin.com/IL/Chicago/4236-S-Champlain-Ave-60653/home/13961119,MRED as Distributed by MLS Grid,11956629.0,N,Y,41.817417000000000,-87.610770000000000,126,2229,931,FULLER,PHILLIPS H,45,8
MLS Listing,,Multi-Family (2-4 Unit),816 E 42nd St,Chicago,IL,60653,650000,7.0,4.0,CHI - Oakland,,2750,0,31,,0.00,Active,,,https://www.redfin.com/IL/Chicago/816-E-42nd-St-60653/home/13962771,MRED as Distributed by MLS Grid,11955709.0,N,Y,41.818855300000000,-87.605928500000000,331,2569,1502,FULLER,PHILLIPS H,41,8
MLS Listing,,Vacant Land,4141 S Langley Ave,Chicago,IL,60653,189900,,,CHI - Grand Boulevard,,2926,0,115,,0.00,Active,,,https://www.redfin.com/IL/Chicago/4141-S-Langley-Ave-60653/home/148048187,MRED as Distributed by MLS Grid,11907223,N,Y,41.819146000000000,-87.608982000000000,101,2518,1189,FULLER,DYETT HS,49,8
MLS Listing,,Condo/Co-op,754 E 43rd St #3,Chicago,IL,60653,122500,2.0,2.0,CHI - Grand Boulevard,,0,1885,241,,473.00,Active,,,https://www.redfin.com/IL/Chicago/754-E-43rd-St-60653/unit-3/home/12666455,MRED as Distributed by MLS Grid,11803205,N,Y,41.816913500000000,-87.607071500000000,309,2253,1333,FULLER,DYETT HS,34,8
MLS Listing,,Condo/Co-op,461 E Bowen Ave #3,Chicago,IL,60653,329900,3.0,2.0,CHI - Grand Boulevard,2054.0,0,2005,62,161.0,190.00,Active,,,https://www.redfin.com/IL/Chicago/461-E-Bowen-Ave-60653/unit-3/home/18941211,MRED as Distributed by MLS Grid,11941439,N,Y,41.819140800000000,-87.614282800000000,89,2464,663,FULLER,DYETT HS,52,5
MLS Listing,,Condo/Co-op,633 E Bowen Ave Unit 3W,Chicago,IL,60653,305000,3.0,2.0,CHI - Grand Boulevard,,0,2005,1,,426.00,Active,,,https://www.redfin.com/IL/Chicago/633-E-Bowen-Ave-60653/unit-3W/home/12606907,MRED as Distributed by MLS Grid,11970649,N,Y,41.819213600000000,-87.610386600000000,106,2501,1047,FULLER,DYETT HS,49,8
MLS Listing,,Condo/Co-op,450 E Bowen Ave Unit 2W,Chicago,IL,60653,280000,3.0,2.0,CHI - Grand Boulevard,1400.0,0,2005,8,200.0,200.00,Active,,,https://www.redfin.com/IL/Chicago/450-E-Bowen-Ave-60653/unit-2W/home/26823633,MRED as Distributed by MLS Grid,11933461,N,Y,41.819618700000000,-87.614619600000000,166,2536,681,FULLER,DYETT HS,55,3
MLS Listing,,Townhouse,450 E Bowen Ave Unit 1W,Chicago,IL,60653,334900,4.0,3.0,CHI - Grand Boulevard,2600.0,0,2005,230,129.0,270.00,Active,,,https://www.redfin.com/IL/Chicago/450-E-Bowen-Ave-60653/unit-1W/home/26823652,MRED as Distributed by MLS Grid,11694463,N,Y,41.819618700000000,-87.614619600000000,166,2536,681,FULLER,DYETT HS,55,3
MLS Listing,,Townhouse,4108 S Maryland Ave,Chicago,IL,60653,369000,3.0,2.5,Jazz on the Boulevard,2008.0,0,2008,122,184.0,163.00,Active,,,https://www.redfin.com/IL/Chicago/4108-Maryland-Ave-60653/home/18949559,MRED as Distributed by MLS Grid,11901651.0,N,Y,41.820070500000000,-87.605742900000000,229,2747,1575,FULLER,DYETT HS,40,8
MLS Listing,,Condo/Co-op,4118 S Vincennes Ave #2,Chicago,IL,60653,394900,3.0,2.0,CHI - Grand Boulevard,1350.0,0,2019,97,293.0,177.00,Active,,,https://www.redfin.com/IL/Chicago/4118-S-Vincennes-Ave-60653/unit-2/home/178523489,MRED as Distributed by MLS Grid,11920265,N,Y,41.819710300000000,-87.613759000000000,139,2548,762,FULLER,DYETT HS,54,5
MLS Listing,,Multi-Family (2-4 Unit),4236 S Champlain Ave,Chicago,IL,60653,729000,9.0,4.0,CHI - Grand Boulevard,,3920,1895,30,,0.00,Active,,,https://www.redfin.com/IL/Chicago/4236-S-Champlain-Ave-60653/home/13961119,MRED as Distributed by MLS Grid,11956629.0,N,Y,41.817417000000000,-87.610770000000000,126,2229,931,FULLER,DYETT HS,45,8
MLS Listing,,Multi-Family (2-4 Unit),816 E 42nd St,Chicago,IL,60653,650000,7.0,4.0,CHI - Oakland,,2750,0,31,,0.00,Active,,,https://www.redfin.com/IL/Chicago/816-E-42nd-St-60653/home/13962771,MRED as Distributed by MLS Grid,11955709.0,N,Y,41.818855300000000,-87.605928500000000,331,2569,1502,FULLER,DYETT HS,41,8
MLS Listing,,Single Family Residential,10930 S Eggleston Ave,Chicago,IL,60628,130000,3.0,1.5,CHI - Roseland,1200.0,3689,1957,2,108.0,0.00,Active,,,https://www.redfin.com/IL/Chicago/10930-S-Eggleston-Ave-60628/home/13078075,MRED as Distributed by MLS Grid,11972901,N,Y,41.695147500000000,-87.634310500000000,638,1118,4207,DUNNE TECH,JULIAN HS,20,1
MLS Listing,,Single Family Residential,10340 S Union Ave,Chicago,IL,60628,125000,3.0,1.5,CHI - Roseland,800.0,6250,1923,12,156.0,0.00,Active,,,https://www.redfin.com/IL/Chicago/10340-S-Union-Ave-60628/home/13078522,MRED as Distributed by MLS Grid,11966469,N,Y,41.705732200000000,-87.640634800000000,98,2657,3069,DUNNE TECH,JULIAN HS,28,2
MLS Listing,,Vacant Land,10615 S Halsted St,Chicago,IL,60628,34900,,,CHI - Roseland,,2613,0,311,,0.00,Active,,,https://www.redfin.com/IL/Chicago/10615-S-Halsted-St-60628/home/21871795,MRED as Distributed by MLS Grid,11748409,N,Y,41.701027400000000,-87.642471800000000,366,2341,3765,DUNNE TECH,JULIAN HS,21,2
MLS Listing,,Single Family Residential,10954 S Normal Ave,Chicago,IL,60628,99000,2.0,1.5,CHI - Roseland,1345.0,4268,1938,167,74.0,0.00,Active,,,https://www.redfin.com/IL/Chicago/10954-S-Normal-Ave-60628/home/13077568,MRED as Distributed by MLS Grid,11866171.0,N,Y,41.694501700000000,-87.635469100000000,728,1208,4335,DUNNE TECH,JULIAN HS,24,0
MLS Listing,,Single Family Residential,10506 S Eggleston Ave,Chicago,IL,60628,170000,5.0,1.5,CHI - Roseland,1100.0,0,1929,96,155.0,0.00,Active,,,https://www.redfin.com/IL/Chicago/10506-S-Eggleston-Ave-60628/home/13078587,MRED as Distributed by MLS Grid,11903003,N,Y,41.703080100000000,-87.634582400000000,372,1934,3092,DUNNE TECH,JULIAN HS,18,2
MLS Listing,,Vacant Land,10601 S Halsted St,Chicago,IL,60628,150000,,,CHI - Roseland,,13068,0,149,,0.00,Active,,,https://www.redfin.com/IL/Chicago/10601-S-Halsted-St-60628/home/177942488,MRED as Distributed by MLS Grid,11880691,N,Y,41.701224500000000,-87.642270800000000,330,2339,3728,DUNNE TECH,JULIAN HS,22,2
MLS Listing,,Single Family Residential,10825 S Parnell Ave,Chicago,IL,60628,165250,4.0,3.0,CHI - Roseland,1675.0,5183,1952,300,99.0,0.00,Active,,,https://www.redfin.com/IL/Chicago/10825-S-Parnell-Ave-60628/home/185713854,MRED as Distributed by MLS Grid,11755515,N,Y,41.697206400000000,-87.636191400000000,863,1445,3975,DUNNE TECH,JULIAN HS,22,0
MLS Listing,,Single Family Residential,10622 S Eggleston Ave,Chicago,IL,60628,135000,4.0,1.5,CHI - Roseland,1250.0,0,1975,273,108.0,0.00,Active,,,https://www.redfin.com/IL/Chicago/10622-S-Eggleston-Ave-60628/home/13079519,MRED as Distributed by MLS Grid,11767249,N,Y,41.700837400000000,-87.634496400000000,486,1659,3402,DUNNE TECH,JULIAN HS,10,0
MLS Listing,,Single Family Residential,10905 S Lowe Ave,Chicago,IL,60628,249900,5.0,2.0,CHI - Roseland,1040.0,5227,1950,31,240.0,0.00,Active,February-4-2024 02:00 PM,February-4-2024 04:00 PM,https://www.redfin.com/IL/Chicago/10905-S-Lowe-Ave-60628/home/13076919,MRED as Distributed by MLS Grid,11950425,N,Y,41.695831200000000,-87.638649600000000,1028,1606,4264,DUNNE TECH,JULIAN HS,26,0
MLS Listing,,Single Family Residential,10532 S Eggleston Ave,Chicago,IL,60628,259000,5.0,2.0,Fernwood,1300.0,3750,1945,23,199.0,0.00,Active,,,https://www.redfin.com/IL/Chicago/10532-S-Eggleston-Ave-60628/home/13079245,MRED as Distributed by MLS Grid,11960323,N,Y,41.702350200000000,-87.634540700000000,384,1842,3192,DUNNE TECH,JULIAN HS,18,0
MLS Listing,,Single Family Residential,10555 S Wallace St,Chicago,IL,60628,315000,5.0,3.0,,1860.0,6150,1887,166,169.0,0.00,Active,,,https://www.redfin.com/IL/Chicago/Undisclosed-address-60628/home/13077981,MRED as Distributed by MLS Grid,11849394,N,Y,41.701785500000000,-87.637468900000000,167,1985,3397,DUNNE TECH,JULIAN HS,21,2
MLS Listing,,Single Family Residential,10609 S Emerald Ave,Chicago,IL,60628,239900,4.0,2.0,CHI - Roseland,1200.0,3000,1954,32,200.0,0.00,Active,,,https://www.redfin.com/IL/Chicago/10609-S-Emerald-Ave-60628/home/13078605,MRED as Distributed by MLS Grid,11955394,N,Y,41.701162100000000,-87.641166400000000,269,2234,3672,DUNNE TECH,JULIAN HS,22,2
MLS Listing,,Single Family Residential,10616 S Normal Ave,Chicago,IL,60628,285000,4.0,3.0,,1500.0,4268,1924,18,190.0,0.00,Active,,,https://www.redfin.com/IL/Chicago/Undisclosed-address-60628/home/13078438,MRED as Distributed by MLS Grid,11962722,N,Y,41.701049100000000,-87.635733800000000,363,1773,3421,DUNNE TECH,JULIAN HS,15,0
MLS Listing,,Single Family Residential,10751 S Parnell Ave,Chicago,IL,60628,429000,4.0,3.0,CHI - Roseland,2528.0,11550,1932,158,170.0,0.00,Active,,,https://www.redfin.com/IL/Chicago/10751-S-Parnell-Ave-60628/home/13077727,MRED as Distributed by MLS Grid,11872885,N,Y,41.698194000000000,-87.636259400000000,718,1532,3839,DUNNE TECH,JULIAN HS,18,0
MLS Listing,,Single Family Residential,5419 S Seeley Ave,Chicago,IL,60609,120998,4.0,1.0,CHI - New City,911.0,0,1919,1,133.0,0.00,Active,,,https://www.redfin.com/IL/Chicago/5419-S-Seeley-Ave-60609/home/13955267,MRED as Distributed by MLS Grid,11948143,N,Y,41.795119700000000,-87.675314900000000,374,4314,1728,FULTON,TILDEN HS,38,1
MLS Listing,,Vacant Land,5241 S Winchester Ave,Chicago,IL,60609,5000,,,CHI - New City,,3125,0,4968,,0.00,Active,,,https://www.redfin.com/IL/Chicago/5241-S-Winchester-Ave-60609/home/179595466,MRED as Distributed by MLS Grid,7567832,N,Y,41.798178300000000,-87.672986100000000,483,4839,1570,FULTON,TILDEN HS,45,1
MLS Listing,,Single Family Residential,5244 S Wood St,Chicago,IL,60609,48900,3.0,1.0,CHI - New City,1100.0,3123,1905,18,44.0,0.00,Active,,,https://www.redfin.com/IL/Chicago/5244-S-Wood-St-60609/home/13955453,MRED as Distributed by MLS Grid,11963318,N,Y,41.798105300000000,-87.669816000000000,484,4997,1865,FULTON,TILDEN HS,46,1
MLS Listing,,Vacant Land,5144 S Wolcott Ave,Chicago,IL,60609,5000,,,CHI - New City,,3049,0,365,,0.00,Active,,,https://www.redfin.com/IL/Chicago/5144-S-Wolcott-Ave-60609/home/13955808,MRED as Distributed by MLS Grid,11713036,N,Y,41.799952200000000,-87.672348800000000,209,5108,1483,FULTON,TILDEN HS,40,1
MLS Listing,,Single Family Residential,2114 W 54th St,Chicago,IL,60609,90000,3.0,2.5,CHI - New City,1200.0,0,1905,145,75.0,0.00,Active,,,https://www.redfin.com/IL/Chicago/2114-W-54th-St-60609/home/13955201,MRED as Distributed by MLS Grid,11874565.0,N,Y,41.795982000000000,-87.677475000000000,159,4333,1492,FULTON,TILDEN HS,46,1
MLS Listing,,Single Family Residential,5140 S Wood St,Chicago,IL,60609,229788,3.0,1.0,CHI - New City,4062.0,4000,1953,24,57.0,0.00,Active,,,https://www.redfin.com/IL/Chicago/5140-S-Wood-St-60609/home/13955258,MRED as Distributed by MLS Grid,11959809,N,Y,41.800029000000000,-87.669849600000000,197,5203,1728,FULTON,TILDEN HS,39,1
MLS Listing,,Multi-Family (2-4 Unit),5308 S Paulina St,Chicago,IL,60609,195000,4.0,3.0,CHI - New City,,3150,1907,31,,0.00,Active,,,https://www.redfin.com/IL/Chicago/5308-S-Paulina-St-60609/home/13955988,MRED as Distributed by MLS Grid,11955864,N,Y,41.797344300000000,-87.667337100000000,656,4738,2160,FULTON,TILDEN HS,45,0
MLS Listing,,Single Family Residential,2028 W 53rd Pl,Chicago,IL,60609,176000,2.0,1.0,CHI - New City,969.0,0,1958,216,182.0,0.00,Active,,,https://www.redfin.com/IL/Chicago/2028-W-53rd-Pl-60609/home/22857098,MRED as Distributed by MLS Grid,11822488,N,Y,41.796873200000000,-87.675623000000000,206,4537,1497,FULTON,TILDEN HS,44,1
MLS Listing,,Multi-Family (2-4 Unit),5418 S Marshfield Ave,Chicago,IL,60609,120000,5.0,3.0,CHI - New City,,3049,1893,383,,0.00,Active,,,https://www.redfin.com/IL/Chicago/5418-S-Marshfield-Ave-60609/home/13954339,MRED as Distributed by MLS Grid,11702644,N,Y,41.795234700000000,-87.666117600000000,715,4445,2444,FULTON,TILDEN HS,39,0
MLS Listing,,Multi-Family (2-4 Unit),5417 S Wolcott Ave,Chicago,IL,60609,320000,5.0,3.0,CHI - New City,,0,1905,109,,0.00,Active,,,https://www.redfin.com/IL/Chicago/5417-S-Wolcott-Ave-60609/home/13954756,MRED as Distributed by MLS Grid,11911163,N,Y,41.795224900000000,-87.671675300000000,699,4521,1974,FULTON,TILDEN HS,40,0
MLS Listing,,Multi-Family (2-4 Unit),5418 S Wood St,Chicago,IL,60609,280000,8.0,2.0,CHI - New City,,3049,1903,36,,0.00,Active,,,https://www.redfin.com/IL/Chicago/5418-S-Wood-St-60609/home/13954754,MRED as Distributed by MLS Grid,11953312,N,Y,41.795178800000000,-87.669761400000000,901,4628,2133,FULTON,TILDEN HS,44,0
MLS Listing,,Multi-Family (2-4 Unit),5224 S Honore St,Chicago,IL,60609,290000,7.0,4.0,CHI - New City,,3125,0,24,,0.00,Active,,,https://www.redfin.com/IL/Chicago/5224-S-Honore-St-60609/home/12568555,MRED as Distributed by MLS Grid,11960427,N,Y,41.798644700000000,-87.671034100000000,402,5001,1708,FULTON,TILDEN HS,46,1
MLS Listing,,Multi-Family (2-4 Unit),5132 S Wolcott Ave,Chicago,IL,60609,359999,5.0,3.0,Back of the Yards,,0,1897,10,,0.00,Active,,,https://www.redfin.com/IL/Chicago/5132-S-Wolcott-Ave-60609/home/180065366,MRED as Distributed by MLS Grid,11966557.0,N,Y,41.800262800000000,-87.672348800000000,164,5149,1461,FULTON,TILDEN HS,38,1
MLS Listing,,Multi-Family (2-4 Unit),5203 S Paulina St,Chicago,IL,60609,365000,9.0,4.0,CHI - New City,,6250,0,111,,0.00,Active,,,https://www.redfin.com/IL/Chicago/5203-S-Paulina-St-60609/home/188091293,MRED as Distributed by MLS Grid,11910166.0,N,Y,41.799277700000000,-87.666908700000000,442,4877,2073,FULTON,TILDEN HS,40,0
MLS Listing,,Multi-Family (2-4 Unit),5301 S Marshfield Ave,Chicago,IL,60609,364900,6.0,2.0,CHI - New City,,0,1909,32,,0.00,Active,,,https://www.redfin.com/IL/Chicago/5301-S-Marshfield-Ave-60609/home/13955208,MRED as Distributed by MLS Grid,11955146.0,N,Y,41.797536300000000,-87.665626700000000,654,4603,2313,FULTON,TILDEN HS,35,0
MLS Listing,,Multi-Family (2-4 Unit),2023 N Sawyer Ave,Chicago,IL,60647,839088,9.0,4.0,CHI - Logan Square,,3125,1895,146,,0.00,Active,,,https://www.redfin.com/IL/Chicago/2023-N-Sawyer-Ave-60647/home/13419142,MRED as Distributed by MLS Grid,11881252,N,Y,41.918099300000000,-87.708682300000000,142,2774,1433,FUNSTON,CLEMENTE H,31,28
MLS Listing,,Single Family Residential,2136 N Spaulding Ave,Chicago,IL,60647,759000,4.0,2.0,CHI - Logan Square,2400.0,7573,1899,163,316.0,0.00,Active,,,https://www.redfin.com/IL/Chicago/2136-N-Spaulding-Ave-60647/home/13419594,MRED as Distributed by MLS Grid,11868217,N,Y,41.920328900000000,-87.710622800000000,228,3164,1425,FUNSTON,CLEMENTE H,41,39
MLS Listing,,Condo/Co-op,1940 N Sawyer Ave #1,Chicago,IL,60647,949000,4.0,3.5,Logan Square,3200.0,0,2023,17,297.0,250.00,Active,February-4-2024 12:00 PM,February-4-2024 01:30 PM,https://www.redfin.com/IL/Chicago/1940-N-Sawyer-Ave-60647/unit-1/home/13418375,MRED as Distributed by MLS Grid,11963520,N,Y,41.916780000000000,-87.708958100000000,298,2603,1550,FUNSTON,CLEMENTE H,31,23
MLS Listing,,Vacant Land,3265 W Armitage Ave,Chicago,IL,60647,975000,,,CHI - Logan Square,,11250,0,874,,0.00,Active,,,https://www.redfin.com/IL/Chicago/3265-W-Armitage-Ave-60647/home/13419263,MRED as Distributed by MLS Grid,11217548,N,Y,41.917206400000000,-87.709575200000000,224,2689,1580,FUNSTON,CLEMENTE H,30,21
MLS Listing,,Multi-Family (5+ Unit),3572 W Cortland St,Chicago,IL,60647,1950000,18.0,10.0,CHI - Logan Square,,6534,1914,20,,0.00,Active,,,https://www.redfin.com/IL/Chicago/3572-W-Cortland-St-60647/home/18957294,MRED as Distributed by MLS Grid,11958295,N,Y,41.915658400000000,-87.716376500000000,260,2897,2279,FUNSTON,KELVYN PAR,38,17
MLS Listing,,Condo/Co-op,7631 N Greenview Ave Unit 1F,Chicago,IL,60626,160000,1.0,1.0,CHI - Rogers Park,,0,0,3,,211.00,Active,,,https://www.redfin.com/IL/Chicago/7631-N-Greenview-Ave-60626/unit-1F/home/12654244,MRED as Distributed by MLS Grid,11971896,N,Y,42.020260200000000,-87.667779800000000,263,4234,596,GALE,SULLIVAN H,22,7
MLS Listing,,Condo/Co-op,7639 N Greenview Ave Unit 1E,Chicago,IL,60626,205000,2.0,1.0,CHI - Rogers Park,850.0,0,1920,45,241.0,290.00,Active,,,https://www.redfin.com/IL/Chicago/7639-N-Greenview-Ave-60626/unit-1E/home/12618055,MRED as Distributed by MLS Grid,11940674,N,Y,42.020536000000000,-87.667895000000000,250,4277,598,GALE,SULLIVAN H,22,7
MLS Listing,,Condo/Co-op,7625 N N Eastlake Ter #202,Chicago,IL,60626,330000,2.0,2.0,CHI - Rogers Park,1250.0,0,1997,1,264.0,372.00,Active,,,https://www.redfin.com/IL/Chicago/7625-N-Eastlake-Ter-60626/unit-202/home/12807872,MRED as Distributed by MLS Grid,11973318,N,Y,42.020051300000000,-87.664316400000000,98,4098,821,GALE,SULLIVAN H,18,7
MLS Listing,,Condo/Co-op,1316 W Fargo Ave #509,Chicago,IL,60626,300000,2.0,1.0,CHI - Rogers Park,965.0,0,1967,6,311.0,332.00,Active,,,https://www.redfin.com/IL/Chicago/1316-W-Fargo-Ave-60626/unit-509/home/13575613,MRED as Distributed by MLS Grid,11969706,N,Y,42.017500000000000,-87.663729200000000,64,3711,644,GALE,SULLIVAN H,19,5
MLS Listing,,Condo/Co-op,7746 N Sheridan Rd Unit 2L,Chicago,IL,60626,365000,2.0,2.0,CHI - Rogers Park,,0,2002,49,,435.00,Active,,,https://www.redfin.com/IL/Chicago/7746-N-Sheridan-Rd-60626/unit-2L/home/187528752,MRED as Distributed by MLS Grid,11948298.0,N,Y,42.022794000000000,-87.666774000000000,121,4565,881,GALE,SULLIVAN H,13,5
MLS Listing,,Single Family Residential,1532 W Chase Ave,Chicago,IL,60626,925000,7.0,4.5,CHI - Rogers Park,,9000,1909,120,,0.00,Active,,,https://www.redfin.com/IL/Chicago/1532-W-Chase-Ave-60626/home/13576520,MRED as Distributed by MLS Grid,11875708,N,Y,42.014115300000000,-87.669425600000000,343,3449,266,GALE,SULLIVAN H,43,31
MLS Listing,,Condo/Co-op,7716 N Ashland Ave #3,Chicago,IL,60626,749900,3.0,3.5,CHI - Rogers Park,4286.0,0,1910,2,175.0,0.00,Active,,,https://www.redfin.com/IL/Chicago/7716-N-Ashland-Ave-60626/unit-3/home/189613235,MRED as Distributed by MLS Grid,11972716,N,Y,42.021691900000000,-87.671004300000000,172,4559,446,GALE,SULLIVAN H,22,7
MLS Listing,,Multi-Family (2-4 Unit),7630 N Marshfield Ave,Chicago,IL,60626,649000,6.0,3.0,CHI - Rogers Park,,3840,1910,135,,0.00,Active,,,https://www.redfin.com/IL/Chicago/7630-N-Marshfield-Ave-60626/home/13573324,MRED as Distributed by MLS Grid,11890919.0,N,Y,42.020297700000000,-87.672185100000000,60,4418,201,GALE,SULLIVAN H,24,9
MLS Listing,,Multi-Family (5+ Unit),1632 W Chase Ave,Chicago,IL,60626,1800000,18.0,12.0,CHI - Rogers Park,11850.0,7500,1905,87,152.0,0.00,Active,,,https://www.redfin.com/IL/Chicago/1632-W-Chase-Ave-60626/home/13571699,MRED as Distributed by MLS Grid,11891313,N,Y,42.014135100000000,-87.671676700000000,97,3569,389,GALE,SULLIVAN H,47,24
MLS Listing,,Vacant Land,10403 S Avenue N,Chicago,IL,60617,30000,,,CHI - East Side,,10890,0,81,,0.00,Active,,,https://www.redfin.com/IL/Chicago/10403-S-Avenue-N-60617/home/113114451,MRED as Distributed by MLS Grid,11931424,N,Y,41.706265100000000,-87.538580000000000,519,4397,9852,GALLISTEL,WASHINGTON,23,6
MLS Listing,,Single Family Residential,10321 S Green Bay Ave,Chicago,IL,60617,196000,3.0,1.0,CHI - East Side,1040.0,3123,1971,89,188.0,0.00,Active,,,https://www.redfin.com/IL/Chicago/10321-S-Green-Bay-Ave-60617/home/13040185,MRED as Distributed by MLS Grid,11925886,N,Y,41.707555300000000,-87.541046200000000,814,4067,9540,GALLISTEL,WASHINGTON,20,2
MLS Listing,,Single Family Residential,10151 S Avenue M,Chicago,IL,60617,159500,3.0,1.5,CHI - East Side,1071.0,3120,1916,245,149.0,0.00,Active,,,https://www.redfin.com/IL/Chicago/10151-S-Avenue-M-60617/home/13038383,MRED as Distributed by MLS Grid,11793991,N,Y,41.710458200000000,-87.537445600000000,753,4085,9843,GALLISTEL,WASHINGTON,12,0
MLS Listing,,Single Family Residential,10657 S Ewing Ave,Chicago,IL,60617,320000,5.0,3.0,CHI - East Side,2158.0,0,1925,141,148.0,0.00,Active,,,https://www.redfin.com/IL/Chicago/10657-S-Ewing-Ave-60617/home/13037253,MRED as Distributed by MLS Grid,11885824,N,Y,41.701079500000000,-87.534995600000000,314,5230,10448,GALLISTEL,WASHINGTON,31,7
MLS Listing,,Single Family Residential,10427 S Avenue F,Chicago,IL,60617,299000,5.0,4.0,CHI - East Side,1900.0,1500,1924,11,157.0,0.00,Active,,,https://www.redfin.com/IL/Chicago/10427-S-Avenue-F-60617/home/13039621,MRED as Distributed by MLS Grid,11966696,N,Y,41.705519200000000,-87.530162700000000,172,5177,10789,GALLISTEL,WASHINGTON,25,6
MLS Listing,,Single Family Residential,10543 S Avenue E,Chicago,IL,60617,269900,3.0,2.0,CHI - East Side,1600.0,3750,1958,76,169.0,0.00,Active,,,https://www.redfin.com/IL/Chicago/10543-S-Avenue-E-60617/home/13037552,MRED as Distributed by MLS Grid,11934393,N,Y,41.703275600000000,-87.528940800000000,37,5493,11003,GALLISTEL,WASHINGTON,27,6
MLS Listing,,Condo/Co-op,4945 N Harlem Ave #2,Chicago,IL,60656,159900,1.0,1.0,CHI - Norwood Park,803.0,0,1978,2,199.0,293.00,Active,,,https://www.redfin.com/IL/Chicago/4945-N-Harlem-Ave-60656/unit-2/home/12597357,MRED as Distributed by MLS Grid,11973169,N,Y,41.971553500000000,-87.806800400000000,929,2460,1629,GARVY,TAFT HS,28,0
MLS Listing,,Single Family Residential,5528 N Natoma Ave,Chicago,IL,60656,250000,2.0,1.5,CHI - Norwood Park,,4878,1949,24,,0.00,Active,,,https://www.redfin.com/IL/Chicago/5528-N-Natoma-Ave-60656/home/13505075,MRED as Distributed by MLS Grid,11959059,N,Y,41.981988700000000,-87.792875700000000,468,2457,1784,GARVY,TAFT HS,31,2
MLS Listing,,Single Family Residential,6805 W Foster Ave,Chicago,IL,60656,329900,3.0,1.0,CHI - Norwood Park,1047.0,0,1951,45,315.0,0.00,Active,,,https://www.redfin.com/IL/Chicago/6805-W-Foster-Ave-60656/home/13505969,MRED as Distributed by MLS Grid,11949371,N,Y,41.975346600000000,-87.797848700000000,1272,2506,1613,GARVY,TAFT HS,12,1
MLS Listing,,Single Family Residential,5214 N Natoma Ave,Chicago,IL,60656,454900,4.0,3.0,CHI - Norwood Park,1425.0,3920,1954,122,319.0,0.00,Active,,,https://www.redfin.com/IL/Chicago/5214-N-Natoma-Ave-60656/home/13505574,MRED as Distributed by MLS Grid,11901828,N,Y,41.976146400000000,-87.792952500000000,1340,2847,2001,GARVY,TAFT HS,28,4
MLS Listing,,Single Family Residential,4859 N Natoma Ave,Chicago,IL,60656,524900,3.0,2.5,CHI - Norwood Park,,8315,1958,19,,0.00,Active,,,https://www.redfin.com/IL/Chicago/4859-N-Natoma-Ave-60656/home/13503085,MRED as Distributed by MLS Grid,11945932,N,Y,41.970043400000000,-87.792587500000000,846,2375,2584,GARVY,TAFT HS,23,0
MLS Listing,,Single Family Residential,5438 N Normandy Ave,Chicago,IL,60656,388000,3.0,2.5,CHI - Norwood Park,2000.0,3354,1925,3,194.0,0.00,Active,,,https://www.redfin.com/IL/Chicago/5438-N-Normandy-Ave-60656/home/13506901,MRED as Distributed by MLS Grid,11972119.0,N,Y,41.980390600000000,-87.794297100000000,710,2398,1650,GARVY,TAFT HS,27,3
MLS Listing,,Single Family Residential,5356 N Nordica Ave,Chicago,IL,60656,399000,3.0,2.0,CHI - Norwood Park,1016.0,3480,1927,3,393.0,0.00,Active,,,https://www.redfin.com/IL/Chicago/5356-N-Nordica-Ave-60656/home/13506666,MRED as Distributed by MLS Grid,11970383,N,Y,41.978780800000000,-87.802635100000000,709,1765,875,GARVY,TAFT HS,27,3
MLS Listing,,Single Family Residential,4921 N Neenah Ave,Chicago,IL,60656,478900,4.0,2.0,Big Oaks,1162.0,5260,1957,7,412.0,0.00,Active,,,https://www.redfin.com/IL/Chicago/4921-N-Neenah-Ave-60656/home/13503910,MRED as Distributed by MLS Grid,11967660,N,Y,41.970923800000000,-87.790051800000000,763,2608,2704,GARVY,TAFT HS,35,5
MLS Listing,,Single Family Residential,5430 N Nashville Ave,Chicago,IL,60656,374900,3.0,1.0,CHI - Norwood Park,1200.0,3600,1951,108,312.0,0.00,Active,,,https://www.redfin.com/IL/Chicago/5430-N-Nashville-Ave-60656/home/13506070,MRED as Distributed by MLS Grid,11911037.0,N,Y,41.980186900000000,-87.791687200000000,758,2676,1942,GARVY,TAFT HS,32,4
MLS Listing,,Single Family Residential,5053 N Merrimac Ave,Chicago,IL,60630,589000,4.0,3.0,CHI - Jefferson Park,,4960,1950,17,,0.00,Active,,,https://www.redfin.com/IL/Chicago/5053-N-Merrimac-Ave-60630/home/13501672,MRED as Distributed by MLS Grid,11963363,N,Y,41.973574900000000,-87.784000000000000,595,3287,2610,GARVY,TAFT HS,40,6
MLS Listing,,Single Family Residential,5135 N Mobile Ave,Chicago,IL,60630,398000,3.0,2.0,CHI - Jefferson Park,1164.0,4960,1945,23,342.0,0.00,Active,,,https://www.redfin.com/IL/Chicago/5135-N-Mobile-Ave-60630/home/13499968,MRED as Distributed by MLS Grid,11961026,N,Y,41.974875000000000,-87.785191200000000,644,3384,2779,GARVY,TAFT HS,34,5
MLS Listing,,Single Family Residential,5040 N Oak Park Ave,Chicago,IL,60656,359900,4.0,1.0,Big Oaks,1217.0,5500,1955,60,296.0,0.00,Active,,,https://www.redfin.com/IL/Chicago/5040-N-Oak-Park-Ave-60656/home/13504079,MRED as Distributed by MLS Grid,11941729.0,N,Y,41.973171500000000,-87.796739600000000,1502,2715,1925,GARVY,TAFT HS,21,0
MLS Listing,,Single Family Residential,4844 N Nordica Ave,Chicago,IL,60656,429000,3.0,2.0,Big Oaks,,5052,1958,4,,0.00,Active,,,https://www.redfin.com/IL/Chicago/4844-N-Nordica-Ave-60656/home/13504515,MRED as Distributed by MLS Grid,11960618,N,Y,41.969677200000000,-87.802786700000000,1364,2183,2012,GARVY,TAFT HS,25,0
MLS Listing,,Single Family Residential,5404 N Sayre Ave,Chicago,IL,60656,1250000,4.0,3.5,Union Ridge,3336.0,10725,1957,9,375.0,0.00,Active,,,https://www.redfin.com/IL/Chicago/5404-N-Sayre-Ave-60656/home/13506359,MRED as Distributed by MLS Grid,11949292,N,Y,41.978969500000000,-87.801335100000000,856,1852,980,GARVY,TAFT HS,28,3
MLS Listing,,Single Family Residential,4945 N Neva Ave,Chicago,IL,60656,668888,5.0,4.0,CHI - Norwood Park,4048.0,5000,1961,33,165.0,0.00,Active,,,https://www.redfin.com/IL/Chicago/4945-N-Neva-Ave-60656/home/13505338,MRED as Distributed by MLS Grid,11953913.0,N,Y,41.971378200000000,-87.805725000000000,993,2496,1676,GARVY,TAFT HS,29,0
MLS Listing,,Single Family Residential,5509 N Natoma Ave,Chicago,IL,60656,650000,3.0,3.0,CHI - Norwood Park,2400.0,4625,1949,122,271.0,0.00,Active,,,https://www.redfin.com/IL/Chicago/5509-N-Natoma-Ave-60656/home/13506267,MRED as Distributed by MLS Grid,11901581.0,N,Y,41.981435900000000,-87.792299400000000,561,2544,1852,GARVY,TAFT HS,35,4
MLS Listing,,Townhouse,238 E 92nd St,Chicago,IL,60619,130000,3.0,2.0,CHI - Roseland,1336.0,4400,1942,2,97.0,0.00,Active,,,https://www.redfin.com/IL/Chicago/238-E-92nd-St-60619/home/185713807,MRED as Distributed by MLS Grid,11972412,N,Y,41.727508000000000,-87.617577100000000,452,5326,1079,GILLESPIE,HARLAN HS,30,0
MLS Listing,,Single Family Residential,9518 S Wentworth Ave,Chicago,IL,60628,107900,3.0,1.0,CHI - Roseland,780.0,3149,1923,3,138.0,0.00,Active,,,https://www.redfin.com/IL/Chicago/9518-S-Wentworth-Ave-60628/home/13092790,MRED as Distributed by MLS Grid,11972107,N,Y,41.721082200000000,-87.628904700000000,535,4323,536,GILLESPIE,HARLAN HS,29,0
MLS Listing,,Single Family Residential,8854 S Wabash Ave,Chicago,IL,60619,145000,4.0,1.0,CHI - Chatham,,5998,1919,48,,0.00,Active,,,https://www.redfin.com/IL/Chicago/8854-S-Wabash-Ave-60619/home/13112971,MRED as Distributed by MLS Grid,11948712,N,Y,41.732948100000000,-87.622842400000000,995,5567,419,GILLESPIE,HARLAN HS,33,5
MLS Listing,,Vacant Land,728 E 95th St,Chicago,IL,60619,49000,,,CHI - Roseland,,3125,0,535,,0.00,Active,,,https://www.redfin.com/IL/Chicago/728-E-95th-St-60619/home/147919419,MRED as Distributed by MLS Grid,11607806,N,Y,41.722371500000000,-87.605755900000000,141,4388,2077,GILLESPIE,HARLAN HS,38,0
MLS Listing,,Vacant Land,9418 S Champlain Ave,Chicago,IL,60619,38900,,,CHI - Roseland,,4645,0,935,,0.00,Active,,,https://www.redfin.com/IL/Chicago/9418-S-Champlain-Ave-60619/home/17557858,MRED as Distributed by MLS Grid,6811454,N,Y,41.723344000000000,-87.608358800000000,184,4656,1793,GILLESPIE,HARLAN HS,43,0
MLS Listing,,Vacant Land,519 E 92nd St,Chicago,IL,60619,8000,,,CHI - Chatham,,0,0,385,,0.00,Active,,,https://www.redfin.com/IL/Chicago/519-E-92nd-St-60619/home/147842635,MRED as Distributed by MLS Grid,11688010,N,Y,41.727191000000000,-87.610957100000000,316,4915,1661,GILLESPIE,HARLAN HS,33,0
MLS Listing,,Vacant Land,515 E 92nd St,Chicago,IL,60619,8000,,,CHI - Chatham,,3125,0,385,,0.00,Active,,,https://www.redfin.com/IL/Chicago/515-E-92nd-St-60619/home/40475343,MRED as Distributed by MLS Grid,11687995,N,Y,41.727167000000000,-87.611183000000000,319,4940,1637,GILLESPIE,HARLAN HS,33,0
MLS Listing,,Vacant Land,504 E 92nd St,Chicago,IL,60619,8000,,,CHI - Chatham,,4688,0,385,,0.00,Active,,,https://www.redfin.com/IL/Chicago/504-E-92nd-St-60619/home/40475330,MRED as Distributed by MLS Grid,11687982,N,Y,41.727686000000000,-87.611585000000000,241,4986,1633,GILLESPIE,HARLAN HS,29,0
MLS Listing,,Vacant Land,517 E 92nd St,Chicago,IL,60619,8000,,,CHI - Chatham,,3125,0,385,,0.00,Active,,,https://www.redfin.com/IL/Chicago/517-E-92nd-St-60619/home/40475342,MRED as Distributed by MLS Grid,11688000,N,Y,41.727210300000000,-87.611059000000000,313,4927,1652,GILLESPIE,HARLAN HS,33,0
MLS Listing,,Vacant Land,508 E 92nd St,Chicago,IL,60619,8000,,,CHI - Chatham,,3125,0,385,,0.00,Active,,,https://www.redfin.com/IL/Chicago/508-E-92nd-St-60619/home/13110233,MRED as Distributed by MLS Grid,11687990,N,Y,41.727607700000000,-87.611483300000000,252,4975,1637,GILLESPIE,HARLAN HS,30,0
MLS Listing,,Vacant Land,444 E 93rd St,Chicago,IL,60619,5000,,,CHI - Roseland,,12196,0,735,,0.00,Active,,,https://www.redfin.com/IL/Chicago/444-E-93rd-St-60619/home/13109133,MRED as Distributed by MLS Grid,11222346,N,Y,41.725758300000000,-87.612293300000000,526,5067,1440,GILLESPIE,HARLAN HS,34,0
MLS Listing,,Vacant Land,9415 S Burnside Ave,Chicago,IL,60619,59900,,,CHI - Chatham,,3125,0,163,,0.00,Active,,,https://www.redfin.com/IL/Chicago/9415-S-Burnside-Ave-60619/home/12566906,MRED as Distributed by MLS Grid,11866499.0,N,Y,41.723231600000000,-87.606171500000000,145,4416,2035,GILLESPIE,HARLAN HS,38,0
MLS Listing,,Vacant Land,9417 S Burnside Ave,Chicago,IL,60619,59900,,,CHI - Chatham,,3049,0,163,,0.00,Active,,,https://www.redfin.com/IL/Chicago/9417-S-Burnside-Ave-60619/home/21816552,MRED as Distributed by MLS Grid,11866513.0,N,Y,41.723267000000000,-87.606056000000000,158,4403,2048,GILLESPIE,HARLAN HS,39,0
MLS Listing,,Vacant Land,9411 S Burnside Ave,Chicago,IL,60619,59900,,,CHI - Chatham,,3049,0,163,,0.00,Active,,,https://www.redfin.com/IL/Chicago/9411-S-Burnside-Ave-60619/home/17557936,MRED as Distributed by MLS Grid,11866489.0,N,Y,41.723343200000000,-87.606268700000000,152,4425,2025,GILLESPIE,HARLAN HS,38,0
MLS Listing,,Single Family Residential,9107 S Wabash Ave,Chicago,IL,60619,165000,3.0,1.5,West Chesterfield,672.0,0,1928,208,246.0,0.00,Active,,,https://www.redfin.com/IL/Chicago/9107-S-Wabash-Ave-60619/home/13108964,MRED as Distributed by MLS Grid,11828565,N,Y,41.728789800000000,-87.622046700000000,868,5462,992,GILLESPIE,HARLAN HS,20,0
MLS Listing,,Single Family Residential,9217 S Indiana Ave,Chicago,IL,60619,190000,3.0,2.0,CHI - Roseland,800.0,3125,1948,1,238.0,0.00,Active,,,https://www.redfin.com/IL/Chicago/9217-S-Indiana-Ave-60619/home/13108945,MRED as Distributed by MLS Grid,11973355,N,Y,41.726739800000000,-87.618859700000000,635,5192,898,GILLESPIE,HARLAN HS,37,0
MLS Listing,,Single Family Residential,9416 S Burnside Ave,Chicago,IL,60619,209900,3.0,1.5,CHI - Roseland,1750.0,0,1905,78,120.0,0.00,Active,,,https://www.redfin.com/IL/Chicago/9416-S-Burnside-Ave-60619/home/13108790,MRED as Distributed by MLS Grid,11932376,N,Y,41.722811100000000,-87.606251300000000,98,4433,2023,GILLESPIE,HARLAN HS,41,0
MLS Listing,,Single Family Residential,8720 S Michigan Ave,Chicago,IL,60619,143000,4.0,1.5,Chatham Park Place,1324.0,4800,1918,110,108.0,0.00,Active,,,https://www.redfin.com/IL/Chicago/8720-S-Michigan-Ave-60619/home/13111640,MRED as Distributed by MLS Grid,11909640,N,Y,41.735740600000000,-87.621317300000000,699,5170,386,GILLESPIE,HARLAN HS,37,5
